{
"type": "FeatureCollection",
"name": "park-points",
"crs": { "type": "name", "properties": { "name": "urn:ogc:def:crs:OGC:1.3:CRS84" } },
"features": [
{ "type": "Feature", "properties": { "name": "Camilla Park" }, "geometry": { "type": "Point", "coordinates": [ -79.603024, 43.575099 ] } },
{ "type": "Feature", "properties": { "name": "The Village Green" }, "geometry": { "type": "Point", "coordinates": [ -79.568576, 43.5742 ] } },
{ "type": "Feature", "properties": { "name": "Richard Jones Park" }, "geometry": { "type": "Point", "coordinates": [ -79.614863, 43.587413 ] } },
{ "type": "Feature", "properties": { "name": "Neebin Park" }, "geometry": { "type": "Point", "coordinates": [ -79.723513, 43.638346 ] } },
{ "type": "Feature", "properties": { "name": "Applewood Heights" }, "geometry": { "type": "Point", "coordinates": [ -79.593259, 43.606337 ] } },
{ "type": "Feature", "properties": { "name": "Hawkins Glen Park" }, "geometry": { "type": "Point", "coordinates": [ -79.596795, 43.600072 ] } },
{ "type": "Feature", "properties": { "name": "Applewood Hills" }, "geometry": { "type": "Point", "coordinates": [ -79.604472, 43.616261 ] } },
{ "type": "Feature", "properties": { "name": "Willowcreek Park" }, "geometry": { "type": "Point", "coordinates": [ -79.584074, 43.615061 ] } },
{ "type": "Feature", "properties": { "name": "Bethesda Common" }, "geometry": { "type": "Point", "coordinates": [ -79.58512, 43.622218 ] } },
{ "type": "Feature", "properties": { "name": "Burnhamdale Park" }, "geometry": { "type": "Point", "coordinates": [ -79.588073, 43.619743 ] } },
{ "type": "Feature", "properties": { "name": "Rathwood District Park" }, "geometry": { "type": "Point", "coordinates": [ -79.615465, 43.61994 ] } },
{ "type": "Feature", "properties": { "name": "Golden Orchard Park" }, "geometry": { "type": "Point", "coordinates": [ -79.607649, 43.621923 ] } },
{ "type": "Feature", "properties": { "name": "Shelby Park" }, "geometry": { "type": "Point", "coordinates": [ -79.620737, 43.614621 ] } },
{ "type": "Feature", "properties": { "name": "Godwick Green" }, "geometry": { "type": "Point", "coordinates": [ -79.741424, 43.623031 ] } },
{ "type": "Feature", "properties": { "name": "Old Ridge Park" }, "geometry": { "type": "Point", "coordinates": [ -79.728582, 43.624505 ] } },
{ "type": "Feature", "properties": { "name": "Bluffer's Park" }, "geometry": { "type": "Point", "coordinates": [ -79.23554, 43.707899 ] } },
{ "type": "Feature", "properties": { "name": "Alex Robertson Park" }, "geometry": { "type": "Point", "coordinates": [ -79.073054, 43.81523 ] } },
{ "type": "Feature", "properties": { "name": "Rotary Park" }, "geometry": { "type": "Point", "coordinates": [ -79.096498, 43.811258 ] } },
{ "type": "Feature", "properties": { "name": "Beachfront Park" }, "geometry": { "type": "Point", "coordinates": [ -79.082136, 43.81239 ] } },
{ "type": "Feature", "properties": { "name": "Dixie Woods Park" }, "geometry": { "type": "Point", "coordinates": [ -79.600347, 43.619853 ] } },
{ "type": "Feature", "properties": { "name": "Kennedy Park" }, "geometry": { "type": "Point", "coordinates": [ -79.599547, 43.617499 ] } },
{ "type": "Feature", "properties": { "name": "Bobbie Rosenfeld Park" }, "geometry": { "type": "Point", "coordinates": [ -79.387359, 43.641862 ] } },
{ "type": "Feature", "properties": { "name": "Parkview Gardens Parkette" }, "geometry": { "type": "Point", "coordinates": [ -79.469468, 43.653449 ] } },
{ "type": "Feature", "properties": { "name": "Blackfriar Park" }, "geometry": { "type": "Point", "coordinates": [ -79.562389, 43.695024 ] } },
{ "type": "Feature", "properties": { "name": "Underpass Park" }, "geometry": { "type": "Point", "coordinates": [ -79.354748, 43.655674 ] } },
{ "type": "Feature", "properties": { "name": "West Toronto Railpath" }, "geometry": { "type": "Point", "coordinates": [ -79.452282, 43.659719 ] } },
{ "type": "Feature", "properties": { "name": "E. T. Seton Park" }, "geometry": { "type": "Point", "coordinates": [ -79.34128, 43.709657 ] } },
{ "type": "Feature", "properties": { "name": "Toronto Island Park" }, "geometry": { "type": "Point", "coordinates": [ -79.381403, 43.62015 ] } },
{ "type": "Feature", "properties": { "name": "Prince Edward Viaduct Parkette" }, "geometry": { "type": "Point", "coordinates": [ -79.367652, 43.674232 ] } },
{ "type": "Feature", "properties": { "name": "Carabram Park" }, "geometry": { "type": "Point", "coordinates": [ -79.737428, 43.762657 ] } },
{ "type": "Feature", "properties": { "name": "Logan Avenue Parkette" }, "geometry": { "type": "Point", "coordinates": [ -79.35038, 43.678651 ] } },
{ "type": "Feature", "properties": { "name": "Wembley Parkette" }, "geometry": { "type": "Point", "coordinates": [ -79.43136, 43.700819 ] } },
{ "type": "Feature", "properties": { "name": "Sherbourne Common" }, "geometry": { "type": "Point", "coordinates": [ -79.364939, 43.644857 ] } },
{ "type": "Feature", "properties": { "name": "Wincott Park" }, "geometry": { "type": "Point", "coordinates": [ -79.550468, 43.692247 ] } },
{ "type": "Feature", "properties": { "name": "Evergreen Gardens Park" }, "geometry": { "type": "Point", "coordinates": [ -79.372551, 43.696079 ] } },
{ "type": "Feature", "properties": { "name": "East Don Parkland" }, "geometry": { "type": "Point", "coordinates": [ -79.378371, 43.79205 ] } },
{ "type": "Feature", "properties": { "name": "Bob Acton Park" }, "geometry": { "type": "Point", "coordinates": [ -79.292927, 43.686593 ] } },
{ "type": "Feature", "properties": { "name": "Glebe Manor Square East" }, "geometry": { "type": "Point", "coordinates": [ -79.38375, 43.703394 ] } },
{ "type": "Feature", "properties": { "name": "Victoria Square Park" }, "geometry": { "type": "Point", "coordinates": [ -79.37329, 43.901757 ] } },
{ "type": "Feature", "properties": { "name": "Stanley Park" }, "geometry": { "type": "Point", "coordinates": [ -79.409286, 43.642346 ] } },
{ "type": "Feature", "properties": { "name": "Kay Gardner Beltline Park" }, "geometry": { "type": "Point", "coordinates": [ -79.413095, 43.700582 ] } },
{ "type": "Feature", "properties": { "name": "Trinity Bellwoods Park" }, "geometry": { "type": "Point", "coordinates": [ -79.414298, 43.647794 ] } },
{ "type": "Feature", "properties": { "name": "Taylor Creek Park" }, "geometry": { "type": "Point", "coordinates": [ -79.314988, 43.700383 ] } },
{ "type": "Feature", "properties": { "name": "Biidaasige Park" }, "geometry": { "type": "Point", "coordinates": [ -79.347643, 43.646078 ] } },
{ "type": "Feature", "properties": { "name": "Queen's Park" }, "geometry": { "type": "Point", "coordinates": [ -79.391979, 43.663758 ] } },
{ "type": "Feature", "properties": { "name": "Glen Edyth Drive Parkette" }, "geometry": { "type": "Point", "coordinates": [ -79.404596, 43.678642 ] } },
{ "type": "Feature", "properties": { "name": "King's Mill Park" }, "geometry": { "type": "Point", "coordinates": [ -79.494075, 43.646172 ] } },
{ "type": "Feature", "properties": { "name": "Lambton Park" }, "geometry": { "type": "Point", "coordinates": [ -79.508867, 43.663189 ] } },
{ "type": "Feature", "properties": { "name": "Humber Marshes" }, "geometry": { "type": "Point", "coordinates": [ -79.486316, 43.642 ] } },
{ "type": "Feature", "properties": { "name": "Adelaide Place Parkette" }, "geometry": { "type": "Point", "coordinates": [ -79.401821, 43.644983 ] } },
{ "type": "Feature", "properties": { "name": "West Humber Parkland" }, "geometry": { "type": "Point", "coordinates": [ -79.561731, 43.734374 ] } },
{ "type": "Feature", "properties": { "name": "Morningside Park" }, "geometry": { "type": "Point", "coordinates": [ -79.20544, 43.778261 ] } },
{ "type": "Feature", "properties": { "name": "Cortleigh Parkette" }, "geometry": { "type": "Point", "coordinates": [ -79.425805, 43.709573 ] } },
{ "type": "Feature", "properties": { "name": "Tom Riley Park" }, "geometry": { "type": "Point", "coordinates": [ -79.521815, 43.648492 ] } },
{ "type": "Feature", "properties": { "name": "Dr. Lillian McGregor Park" }, "geometry": { "type": "Point", "coordinates": [ -79.385647, 43.664099 ] } },
{ "type": "Feature", "properties": { "name": "Keele-Mulock Parkette" }, "geometry": { "type": "Point", "coordinates": [ -79.466676, 43.671617 ] } },
{ "type": "Feature", "properties": { "name": "Christie Pits Park" }, "geometry": { "type": "Point", "coordinates": [ -79.420826, 43.664688 ] } },
{ "type": "Feature", "properties": { "name": "Curran Hall Ravine" }, "geometry": { "type": "Point", "coordinates": [ -79.211988, 43.766507 ] } },
{ "type": "Feature", "properties": { "name": "Wanita Park" }, "geometry": { "type": "Point", "coordinates": [ -79.1548, 43.777294 ] } },
{ "type": "Feature", "properties": { "name": "Guild Park and Gardens" }, "geometry": { "type": "Point", "coordinates": [ -79.191981, 43.746132 ] } },
{ "type": "Feature", "properties": { "name": "Grange Park" }, "geometry": { "type": "Point", "coordinates": [ -79.392236, 43.652451 ] } },
{ "type": "Feature", "properties": { "name": "Wexford Park" }, "geometry": { "type": "Point", "coordinates": [ -79.2967, 43.734121 ] } },
{ "type": "Feature", "properties": { "name": "Edge Park" }, "geometry": { "type": "Point", "coordinates": [ -79.298026, 43.717523 ] } },
{ "type": "Feature", "properties": { "name": "Fred Hamilton Playground" }, "geometry": { "type": "Point", "coordinates": [ -79.42024, 43.652977 ] } },
{ "type": "Feature", "properties": { "name": "Front Campus" }, "geometry": { "type": "Point", "coordinates": [ -79.39515, 43.661731 ] } },
{ "type": "Feature", "properties": { "name": "St. Patrick's Square" }, "geometry": { "type": "Point", "coordinates": [ -79.390655, 43.650699 ] } },
{ "type": "Feature", "properties": { "name": "Jean Sibelius Square" }, "geometry": { "type": "Point", "coordinates": [ -79.408813, 43.671453 ] } },
{ "type": "Feature", "properties": { "name": "Clarence Square" }, "geometry": { "type": "Point", "coordinates": [ -79.393666, 43.644141 ] } },
{ "type": "Feature", "properties": { "name": "Ziibiing Indigenous Landscape" }, "geometry": { "type": "Point", "coordinates": [ -79.394325, 43.663098 ] } },
{ "type": "Feature", "properties": { "name": "Gwendolyn MacEwen Parkette" }, "geometry": { "type": "Point", "coordinates": [ -79.406257, 43.668713 ] } },
{ "type": "Feature", "properties": { "name": "St. Alban's Square" }, "geometry": { "type": "Point", "coordinates": [ -79.410516, 43.668587 ] } },
{ "type": "Feature", "properties": { "name": "Vermont Square Park" }, "geometry": { "type": "Point", "coordinates": [ -79.415391, 43.670837 ] } },
{ "type": "Feature", "properties": { "name": "Jesse Ketchum Park" }, "geometry": { "type": "Point", "coordinates": [ -79.391889, 43.672393 ] } },
{ "type": "Feature", "properties": { "name": "Paul Martel Park" }, "geometry": { "type": "Point", "coordinates": [ -79.403213, 43.667548 ] } },
{ "type": "Feature", "properties": { "name": "Highland Creek Ravine" }, "geometry": { "type": "Point", "coordinates": [ -79.157276, 43.773513 ] } },
{ "type": "Feature", "properties": { "name": "Dovercourt Park" }, "geometry": { "type": "Point", "coordinates": [ -79.43354, 43.665225 ] } },
{ "type": "Feature", "properties": { "name": "Westmoreland Avenue Parkette" }, "geometry": { "type": "Point", "coordinates": [ -79.430352, 43.661554 ] } },
{ "type": "Feature", "properties": { "name": "Wenderly Park" }, "geometry": { "type": "Point", "coordinates": [ -79.446495, 43.711655 ] } },
{ "type": "Feature", "properties": { "name": "Nicol MacNicol Parkette" }, "geometry": { "type": "Point", "coordinates": [ -79.432865, 43.704093 ] } },
{ "type": "Feature", "properties": { "name": "Megan Park" }, "geometry": { "type": "Point", "coordinates": [ -79.173355, 43.774413 ] } },
{ "type": "Feature", "properties": { "name": "June Rowlands Park" }, "geometry": { "type": "Point", "coordinates": [ -79.388572, 43.700713 ] } },
{ "type": "Feature", "properties": { "name": "Margaret Fairley Park" }, "geometry": { "type": "Point", "coordinates": [ -79.405601, 43.660305 ] } },
{ "type": "Feature", "properties": { "name": "Charlottetown Park" }, "geometry": { "type": "Point", "coordinates": [ -79.140379, 43.781226 ] } },
{ "type": "Feature", "properties": { "name": "High Park" }, "geometry": { "type": "Point", "coordinates": [ -79.463363, 43.646081 ] } },
{ "type": "Feature", "properties": { "name": "Riverdale Park East" }, "geometry": { "type": "Point", "coordinates": [ -79.355736, 43.670047 ] } },
{ "type": "Feature", "properties": { "name": "St. Margaret's Parkette" }, "geometry": { "type": "Point", "coordinates": [ -79.192521, 43.767474 ] } },
{ "type": "Feature", "properties": { "name": "Huron & Washington Parkette" }, "geometry": { "type": "Point", "coordinates": [ -79.401458, 43.666064 ] } },
{ "type": "Feature", "properties": { "name": "Ramsden Park" }, "geometry": { "type": "Point", "coordinates": [ -79.393073, 43.676412 ] } },
{ "type": "Feature", "properties": { "name": "Conley Park South" }, "geometry": { "type": "Point", "coordinates": [ -79.459885, 43.790179 ] } },
{ "type": "Feature", "properties": { "name": "Harry W. Arthurs Common" }, "geometry": { "type": "Point", "coordinates": [ -79.50135, 43.773547 ] } },
{ "type": "Feature", "properties": { "name": "Hullmar Park" }, "geometry": { "type": "Point", "coordinates": [ -79.525461, 43.764948 ] } },
{ "type": "Feature", "properties": { "name": "Dufferin Grove Park" }, "geometry": { "type": "Point", "coordinates": [ -79.432487, 43.656324 ] } },
{ "type": "Feature", "properties": { "name": "Cedarvale Park" }, "geometry": { "type": "Point", "coordinates": [ -79.425525, 43.691094 ] } },
{ "type": "Feature", "properties": { "name": "Nordheimer Ravine" }, "geometry": { "type": "Point", "coordinates": [ -79.412704, 43.682914 ] } },
{ "type": "Feature", "properties": { "name": "Lisgar Park" }, "geometry": { "type": "Point", "coordinates": [ -79.423739, 43.642442 ] } },
{ "type": "Feature", "properties": { "name": "Marian Engel Park" }, "geometry": { "type": "Point", "coordinates": [ -79.424103, 43.673805 ] } },
{ "type": "Feature", "properties": { "name": "Hillcrest Park" }, "geometry": { "type": "Point", "coordinates": [ -79.424512, 43.675998 ] } },
{ "type": "Feature", "properties": { "name": "Parkview Park" }, "geometry": { "type": "Point", "coordinates": [ -79.393706, 43.774881 ] } },
{ "type": "Feature", "properties": { "name": "Willowdale Park" }, "geometry": { "type": "Point", "coordinates": [ -79.407701, 43.766109 ] } },
{ "type": "Feature", "properties": { "name": "Sheppard East Park" }, "geometry": { "type": "Point", "coordinates": [ -79.396092, 43.763364 ] } },
{ "type": "Feature", "properties": { "name": "Glendora Park" }, "geometry": { "type": "Point", "coordinates": [ -79.399603, 43.761435 ] } },
{ "type": "Feature", "properties": { "name": "Roxton Road Parkette" }, "geometry": { "type": "Point", "coordinates": [ -79.419607, 43.650697 ] } },
{ "type": "Feature", "properties": { "name": "Sorauren Park" }, "geometry": { "type": "Point", "coordinates": [ -79.443339, 43.648687 ] } },
{ "type": "Feature", "properties": { "name": "Withrow Park" }, "geometry": { "type": "Point", "coordinates": [ -79.346942, 43.674443 ] } },
{ "type": "Feature", "properties": { "name": "Silverview Park" }, "geometry": { "type": "Point", "coordinates": [ -79.411432, 43.785147 ] } },
{ "type": "Feature", "properties": { "name": "Wells Hill Park" }, "geometry": { "type": "Point", "coordinates": [ -79.416395, 43.682885 ] } },
{ "type": "Feature", "properties": { "name": "St. Andrew's Playground" }, "geometry": { "type": "Point", "coordinates": [ -79.398994, 43.646416 ] } },
{ "type": "Feature", "properties": { "name": "Lionel Conacher Park" }, "geometry": { "type": "Point", "coordinates": [ -79.394306, 43.680494 ] } },
{ "type": "Feature", "properties": { "name": "Poplar Plains Park" }, "geometry": { "type": "Point", "coordinates": [ -79.40324, 43.680217 ] } },
{ "type": "Feature", "properties": { "name": "Sir Winston Churchill Park" }, "geometry": { "type": "Point", "coordinates": [ -79.408804, 43.682735 ] } },
{ "type": "Feature", "properties": { "name": "Pricefield Road Playground" }, "geometry": { "type": "Point", "coordinates": [ -79.388754, 43.681494 ] } },
{ "type": "Feature", "properties": { "name": "Ferrand Drive Park" }, "geometry": { "type": "Point", "coordinates": [ -79.332805, 43.719883 ] } },
{ "type": "Feature", "properties": { "name": "Robertson Davies Park" }, "geometry": { "type": "Point", "coordinates": [ -79.397613, 43.678598 ] } },
{ "type": "Feature", "properties": { "name": "Roseneath Park" }, "geometry": { "type": "Point", "coordinates": [ -79.434531, 43.682124 ] } },
{ "type": "Feature", "properties": { "name": "Humewood Park" }, "geometry": { "type": "Point", "coordinates": [ -79.426121, 43.683674 ] } },
{ "type": "Feature", "properties": { "name": "Graham Park" }, "geometry": { "type": "Point", "coordinates": [ -79.430243, 43.6815 ] } },
{ "type": "Feature", "properties": { "name": "Tichester Park" }, "geometry": { "type": "Point", "coordinates": [ -79.417877, 43.685432 ] } },
{ "type": "Feature", "properties": { "name": "George Ben Park" }, "geometry": { "type": "Point", "coordinates": [ -79.421245, 43.652382 ] } },
{ "type": "Feature", "properties": { "name": "College Park" }, "geometry": { "type": "Point", "coordinates": [ -79.383846, 43.659697 ] } },
{ "type": "Feature", "properties": { "name": "Little Norway Park" }, "geometry": { "type": "Point", "coordinates": [ -79.398411, 43.634509 ] } },
{ "type": "Feature", "properties": { "name": "Moss Park" }, "geometry": { "type": "Point", "coordinates": [ -79.371127, 43.655264 ] } },
{ "type": "Feature", "properties": { "name": "Simcoe Park" }, "geometry": { "type": "Point", "coordinates": [ -79.386887, 43.644753 ] } },
{ "type": "Feature", "properties": { "name": "St. James Park" }, "geometry": { "type": "Point", "coordinates": [ -79.373331, 43.650781 ] } },
{ "type": "Feature", "properties": { "name": "Sergeant Ryan Russell Parkette" }, "geometry": { "type": "Point", "coordinates": [ -79.398104, 43.677481 ] } },
{ "type": "Feature", "properties": { "name": "Jay Macpherson Green" }, "geometry": { "type": "Point", "coordinates": [ -79.397267, 43.677359 ] } },
{ "type": "Feature", "properties": { "name": "Main Sewage Treatment Playground" }, "geometry": { "type": "Point", "coordinates": [ -79.317013, 43.663511 ] } },
{ "type": "Feature", "properties": { "name": "Woodbine Park" }, "geometry": { "type": "Point", "coordinates": [ -79.312751, 43.664441 ] } },
{ "type": "Feature", "properties": { "name": "Wishing Well Park" }, "geometry": { "type": "Point", "coordinates": [ -79.316612, 43.769884 ] } },
{ "type": "Feature", "properties": { "name": "Tamarac Green" }, "geometry": { "type": "Point", "coordinates": [ -79.475527, 43.977551 ] } },
{ "type": "Feature", "properties": { "name": "Norm Weller Park" }, "geometry": { "type": "Point", "coordinates": [ -79.483087, 43.972047 ] } },
{ "type": "Feature", "properties": { "name": "McClellan Heights Park" }, "geometry": { "type": "Point", "coordinates": [ -79.478283, 43.973441 ] } },
{ "type": "Feature", "properties": { "name": "Khamissa Park" }, "geometry": { "type": "Point", "coordinates": [ -79.474863, 43.97098 ] } },
{ "type": "Feature", "properties": { "name": "Seston Park" }, "geometry": { "type": "Point", "coordinates": [ -79.479602, 43.969941 ] } },
{ "type": "Feature", "properties": { "name": "MacGregor Playground" }, "geometry": { "type": "Point", "coordinates": [ -79.442094, 43.65318 ] } },
{ "type": "Feature", "properties": { "name": "McCormick Park" }, "geometry": { "type": "Point", "coordinates": [ -79.433528, 43.647063 ] } },
{ "type": "Feature", "properties": { "name": "Dundas-St. Clarens Parkette" }, "geometry": { "type": "Point", "coordinates": [ -79.438783, 43.649801 ] } },
{ "type": "Feature", "properties": { "name": "Massey Harris Park" }, "geometry": { "type": "Point", "coordinates": [ -79.413318, 43.641431 ] } },
{ "type": "Feature", "properties": { "name": "Masaryk Park" }, "geometry": { "type": "Point", "coordinates": [ -79.433043, 43.640131 ] } },
{ "type": "Feature", "properties": { "name": "Greenwood Park" }, "geometry": { "type": "Point", "coordinates": [ -79.328624, 43.668888 ] } },
{ "type": "Feature", "properties": { "name": "Hunters Glen Park" }, "geometry": { "type": "Point", "coordinates": [ -79.259528, 43.747458 ] } },
{ "type": "Feature", "properties": { "name": "Riverdale Park West" }, "geometry": { "type": "Point", "coordinates": [ -79.359848, 43.666652 ] } },
{ "type": "Feature", "properties": { "name": "Les Anthony Parkette" }, "geometry": { "type": "Point", "coordinates": [ -79.322934, 43.691476 ] } },
{ "type": "Feature", "properties": { "name": "Erwin Krickhahn Park" }, "geometry": { "type": "Point", "coordinates": [ -79.446202, 43.659354 ] } },
{ "type": "Feature", "properties": { "name": "Campbell Avenue Park" }, "geometry": { "type": "Point", "coordinates": [ -79.448342, 43.663614 ] } },
{ "type": "Feature", "properties": { "name": "Perth Square Park" }, "geometry": { "type": "Point", "coordinates": [ -79.452456, 43.66399 ] } },
{ "type": "Feature", "properties": { "name": "Carlton Park" }, "geometry": { "type": "Point", "coordinates": [ -79.455471, 43.666538 ] } },
{ "type": "Feature", "properties": { "name": "Chelsea Avenue Playground" }, "geometry": { "type": "Point", "coordinates": [ -79.455761, 43.657401 ] } },
{ "type": "Feature", "properties": { "name": "Wellesley Park" }, "geometry": { "type": "Point", "coordinates": [ -79.362277, 43.669603 ] } },
{ "type": "Feature", "properties": { "name": "Joseph Sheard Parkette" }, "geometry": { "type": "Point", "coordinates": [ -79.381859, 43.660355 ] } },
{ "type": "Feature", "properties": { "name": "Victoria Memorial Square" }, "geometry": { "type": "Point", "coordinates": [ -79.400218, 43.642679 ] } },
{ "type": "Feature", "properties": { "name": "Regents Park" }, "geometry": { "type": "Point", "coordinates": [ -79.291248, 43.706763 ] } },
{ "type": "Feature", "properties": { "name": "Trethewey Park" }, "geometry": { "type": "Point", "coordinates": [ -79.497832, 43.696753 ] } },
{ "type": "Feature", "properties": { "name": "Randy Padmore Park" }, "geometry": { "type": "Point", "coordinates": [ -79.400856, 43.649814 ] } },
{ "type": "Feature", "properties": { "name": "Stephenson Park" }, "geometry": { "type": "Point", "coordinates": [ -79.303661, 43.685987 ] } },
{ "type": "Feature", "properties": { "name": "Norwood Park" }, "geometry": { "type": "Point", "coordinates": [ -79.303714, 43.682328 ] } },
{ "type": "Feature", "properties": { "name": "East Toronto Athletic Field" }, "geometry": { "type": "Point", "coordinates": [ -79.29917, 43.685308 ] } },
{ "type": "Feature", "properties": { "name": "Jimmie Simpson Park" }, "geometry": { "type": "Point", "coordinates": [ -79.344719, 43.661213 ] } },
{ "type": "Feature", "properties": { "name": "Kew Gardens" }, "geometry": { "type": "Point", "coordinates": [ -79.298316, 43.66813 ] } },
{ "type": "Feature", "properties": { "name": "East Lynn Park" }, "geometry": { "type": "Point", "coordinates": [ -79.315378, 43.684228 ] } },
{ "type": "Feature", "properties": { "name": "Four Oaks Gate Park" }, "geometry": { "type": "Point", "coordinates": [ -79.337563, 43.696833 ] } },
{ "type": "Feature", "properties": { "name": "Dieppe Park" }, "geometry": { "type": "Point", "coordinates": [ -79.33546, 43.691606 ] } },
{ "type": "Feature", "properties": { "name": "Sackville Playground" }, "geometry": { "type": "Point", "coordinates": [ -79.360666, 43.654617 ] } },
{ "type": "Feature", "properties": { "name": "Thompson Street Parkette" }, "geometry": { "type": "Point", "coordinates": [ -79.350636, 43.659313 ] } },
{ "type": "Feature", "properties": { "name": "Kitchener Park" }, "geometry": { "type": "Point", "coordinates": [ -79.253601, 43.731941 ] } },
{ "type": "Feature", "properties": { "name": "Canada Square" }, "geometry": { "type": "Point", "coordinates": [ -79.381535, 43.638746 ] } },
{ "type": "Feature", "properties": { "name": "Rees Street Parkette" }, "geometry": { "type": "Point", "coordinates": [ -79.384637, 43.639547 ] } },
{ "type": "Feature", "properties": { "name": "HTO Park" }, "geometry": { "type": "Point", "coordinates": [ -79.388044, 43.637837 ] } },
{ "type": "Feature", "properties": { "name": "HTO Park West" }, "geometry": { "type": "Point", "coordinates": [ -79.390137, 43.637469 ] } },
{ "type": "Feature", "properties": { "name": "Toronto Music Garden" }, "geometry": { "type": "Point", "coordinates": [ -79.394225, 43.636964 ] } },
{ "type": "Feature", "properties": { "name": "Waterfront Children's Garden" }, "geometry": { "type": "Point", "coordinates": [ -79.392658, 43.637131 ] } },
{ "type": "Feature", "properties": { "name": "Westlake Park" }, "geometry": { "type": "Point", "coordinates": [ -79.487025, 43.681586 ] } },
{ "type": "Feature", "properties": { "name": "Eglinton Flats" }, "geometry": { "type": "Point", "coordinates": [ -79.495096, 43.683684 ] } },
{ "type": "Feature", "properties": { "name": "Stan Wadlow Park" }, "geometry": { "type": "Point", "coordinates": [ -79.314149, 43.698406 ] } },
{ "type": "Feature", "properties": { "name": "Dentonia Park" }, "geometry": { "type": "Point", "coordinates": [ -79.293478, 43.693651 ] } },
{ "type": "Feature", "properties": { "name": "Everett Park" }, "geometry": { "type": "Point", "coordinates": [ -79.310388, 43.695639 ] } },
{ "type": "Feature", "properties": { "name": "Stanley G. Grizzle Park" }, "geometry": { "type": "Point", "coordinates": [ -79.302755, 43.688835 ] } },
{ "type": "Feature", "properties": { "name": "Inglewood Heights Park" }, "geometry": { "type": "Point", "coordinates": [ -79.291767, 43.778397 ] } },
{ "type": "Feature", "properties": { "name": "Gledhill Park" }, "geometry": { "type": "Point", "coordinates": [ -79.309918, 43.690854 ] } },
{ "type": "Feature", "properties": { "name": "Oakcrest Parkette" }, "geometry": { "type": "Point", "coordinates": [ -79.311457, 43.683496 ] } },
{ "type": "Feature", "properties": { "name": "Fairglen Park" }, "geometry": { "type": "Point", "coordinates": [ -79.32509, 43.786955 ] } },
{ "type": "Feature", "properties": { "name": "Clydesdale Park" }, "geometry": { "type": "Point", "coordinates": [ -79.329447, 43.783238 ] } },
{ "type": "Feature", "properties": { "name": "Collingsbrook Parkette" }, "geometry": { "type": "Point", "coordinates": [ -79.318994, 43.791024 ] } },
{ "type": "Feature", "properties": { "name": "McCaul-Orde Park" }, "geometry": { "type": "Point", "coordinates": [ -79.392592, 43.657833 ] } },
{ "type": "Feature", "properties": { "name": "The Gore" }, "geometry": { "type": "Point", "coordinates": [ -79.408877, 43.635632 ] } },
{ "type": "Feature", "properties": { "name": "Simonston Park" }, "geometry": { "type": "Point", "coordinates": [ -79.364671, 43.815808 ] } },
{ "type": "Feature", "properties": { "name": "Robert Grundy Parkette" }, "geometry": { "type": "Point", "coordinates": [ -79.370055, 43.882689 ] } },
{ "type": "Feature", "properties": { "name": "Ashton Meadows Park" }, "geometry": { "type": "Point", "coordinates": [ -79.361948, 43.873073 ] } },
{ "type": "Feature", "properties": { "name": "Calvert Park" }, "geometry": { "type": "Point", "coordinates": [ -79.346775, 43.876766 ] } },
{ "type": "Feature", "properties": { "name": "Victoria Park-Eglinton Parkette" }, "geometry": { "type": "Point", "coordinates": [ -79.301669, 43.724306 ] } },
{ "type": "Feature", "properties": { "name": "Grey Abbey Park" }, "geometry": { "type": "Point", "coordinates": [ -79.175176, 43.754803 ] } },
{ "type": "Feature", "properties": { "name": "R.V. Burgess Park" }, "geometry": { "type": "Point", "coordinates": [ -79.343595, 43.703835 ] } },
{ "type": "Feature", "properties": { "name": "Merrill Bridge Road Park" }, "geometry": { "type": "Point", "coordinates": [ -79.314141, 43.681581 ] } },
{ "type": "Feature", "properties": { "name": "Lower Don Parklands" }, "geometry": { "type": "Point", "coordinates": [ -79.344508, 43.699057 ] } },
{ "type": "Feature", "properties": { "name": "Cullen Bryant Park" }, "geometry": { "type": "Point", "coordinates": [ -79.328179, 43.700269 ] } },
{ "type": "Feature", "properties": { "name": "Coleman Park" }, "geometry": { "type": "Point", "coordinates": [ -79.299893, 43.689423 ] } },
{ "type": "Feature", "properties": { "name": "Wanless Park" }, "geometry": { "type": "Point", "coordinates": [ -79.392048, 43.72892 ] } },
{ "type": "Feature", "properties": { "name": "East Don Parkland" }, "geometry": { "type": "Point", "coordinates": [ -79.359555, 43.769889 ] } },
{ "type": "Feature", "properties": { "name": "Moatfield Farm Park" }, "geometry": { "type": "Point", "coordinates": [ -79.35268, 43.763299 ] } },
{ "type": "Feature", "properties": { "name": "True Davidson Park" }, "geometry": { "type": "Point", "coordinates": [ -79.330157, 43.692083 ] } },
{ "type": "Feature", "properties": { "name": "Leonard Linton Park" }, "geometry": { "type": "Point", "coordinates": [ -79.354056, 43.713458 ] } },
{ "type": "Feature", "properties": { "name": "George Webster Park" }, "geometry": { "type": "Point", "coordinates": [ -79.301031, 43.701217 ] } },
{ "type": "Feature", "properties": { "name": "Donora Park" }, "geometry": { "type": "Point", "coordinates": [ -79.295815, 43.69985 ] } },
{ "type": "Feature", "properties": { "name": "Eglinton Park" }, "geometry": { "type": "Point", "coordinates": [ -79.405334, 43.707478 ] } },
{ "type": "Feature", "properties": { "name": "Topham Park" }, "geometry": { "type": "Point", "coordinates": [ -79.30651, 43.709963 ] } },
{ "type": "Feature", "properties": { "name": "Jim McPherson Park" }, "geometry": { "type": "Point", "coordinates": [ -79.296233, 43.712407 ] } },
{ "type": "Feature", "properties": { "name": "Clairlea Park" }, "geometry": { "type": "Point", "coordinates": [ -79.287659, 43.714301 ] } },
{ "type": "Feature", "properties": { "name": "Jay Robinson Park" }, "geometry": { "type": "Point", "coordinates": [ -79.401227, 43.724387 ] } },
{ "type": "Feature", "properties": { "name": "Jaye Robinson Park" }, "geometry": { "type": "Point", "coordinates": [ -79.401018, 43.722927 ] } },
{ "type": "Feature", "properties": { "name": "Winchester Park" }, "geometry": { "type": "Point", "coordinates": [ -79.371728, 43.665673 ] } },
{ "type": "Feature", "properties": { "name": "Winchester Square Park" }, "geometry": { "type": "Point", "coordinates": [ -79.371482, 43.664299 ] } },
{ "type": "Feature", "properties": { "name": "Sculpture Gardens" }, "geometry": { "type": "Point", "coordinates": [ -79.373643, 43.649844 ] } },
{ "type": "Feature", "properties": { "name": "Courthouse Square" }, "geometry": { "type": "Point", "coordinates": [ -79.375459, 43.650469 ] } },
{ "type": "Feature", "properties": { "name": "Larry Sefton Park" }, "geometry": { "type": "Point", "coordinates": [ -79.383665, 43.654407 ] } },
{ "type": "Feature", "properties": { "name": "Trinity Square" }, "geometry": { "type": "Point", "coordinates": [ -79.381898, 43.654454 ] } },
{ "type": "Feature", "properties": { "name": "Wallace Emerson Park" }, "geometry": { "type": "Point", "coordinates": [ -79.440509, 43.666776 ] } },
{ "type": "Feature", "properties": { "name": "Perth Avenue Parkette" }, "geometry": { "type": "Point", "coordinates": [ -79.449971, 43.658774 ] } },
{ "type": "Feature", "properties": { "name": "Warden Woods Park" }, "geometry": { "type": "Point", "coordinates": [ -79.282338, 43.704185 ] } },
{ "type": "Feature", "properties": { "name": "Louis March Park" }, "geometry": { "type": "Point", "coordinates": [ -79.358772, 43.658332 ] } },
{ "type": "Feature", "properties": { "name": "Cordave Parkette" }, "geometry": { "type": "Point", "coordinates": [ -79.456968, 43.867484 ] } },
{ "type": "Feature", "properties": { "name": "Mill Pond Park" }, "geometry": { "type": "Point", "coordinates": [ -79.455424, 43.878313 ] } },
{ "type": "Feature", "properties": { "name": "Rumble Pond Park South" }, "geometry": { "type": "Point", "coordinates": [ -79.463114, 43.870949 ] } },
{ "type": "Feature", "properties": { "name": "Richvale Greenway North" }, "geometry": { "type": "Point", "coordinates": [ -79.448979, 43.866617 ] } },
{ "type": "Feature", "properties": { "name": "Stavert Park" }, "geometry": { "type": "Point", "coordinates": [ -79.460075, 43.879475 ] } },
{ "type": "Feature", "properties": { "name": "Norman Jewison Park" }, "geometry": { "type": "Point", "coordinates": [ -79.384531, 43.667238 ] } },
{ "type": "Feature", "properties": { "name": "George Hislop Park" }, "geometry": { "type": "Point", "coordinates": [ -79.384936, 43.668284 ] } },
{ "type": "Feature", "properties": { "name": "Todmorden Mills Park" }, "geometry": { "type": "Point", "coordinates": [ -79.35864, 43.687552 ] } },
{ "type": "Feature", "properties": { "name": "Madelaine Park" }, "geometry": { "type": "Point", "coordinates": [ -79.285242, 43.692752 ] } },
{ "type": "Feature", "properties": { "name": "Oakridge Park" }, "geometry": { "type": "Point", "coordinates": [ -79.278786, 43.692406 ] } },
{ "type": "Feature", "properties": { "name": "Prairie Drive Park" }, "geometry": { "type": "Point", "coordinates": [ -79.283972, 43.697353 ] } },
{ "type": "Feature", "properties": { "name": "Moreau Trail Park" }, "geometry": { "type": "Point", "coordinates": [ -79.283669, 43.707467 ] } },
{ "type": "Feature", "properties": { "name": "Whitney Park" }, "geometry": { "type": "Point", "coordinates": [ -79.373158, 43.683694 ] } },
{ "type": "Feature", "properties": { "name": "Rosedale Park" }, "geometry": { "type": "Point", "coordinates": [ -79.378908, 43.682774 ] } },
{ "type": "Feature", "properties": { "name": "Chorley Park" }, "geometry": { "type": "Point", "coordinates": [ -79.369973, 43.68643 ] } },
{ "type": "Feature", "properties": { "name": "Cummer Park" }, "geometry": { "type": "Point", "coordinates": [ -79.371971, 43.799081 ] } },
{ "type": "Feature", "properties": { "name": "Terry Fox Park" }, "geometry": { "type": "Point", "coordinates": [ -79.320277, 43.814862 ] } },
{ "type": "Feature", "properties": { "name": "Cresthaven Park" }, "geometry": { "type": "Point", "coordinates": [ -79.363241, 43.798975 ] } },
{ "type": "Feature", "properties": { "name": "Cummer Parkette" }, "geometry": { "type": "Point", "coordinates": [ -79.371602, 43.801379 ] } },
{ "type": "Feature", "properties": { "name": "Skymark Park" }, "geometry": { "type": "Point", "coordinates": [ -79.355819, 43.794614 ] } },
{ "type": "Feature", "properties": { "name": "McDairmid Woods Park" }, "geometry": { "type": "Point", "coordinates": [ -79.267574, 43.779835 ] } },
{ "type": "Feature", "properties": { "name": "Mike Bela Park" }, "geometry": { "type": "Point", "coordinates": [ -79.356783, 43.735345 ] } },
{ "type": "Feature", "properties": { "name": "Rippleton Park" }, "geometry": { "type": "Point", "coordinates": [ -79.361913, 43.738712 ] } },
{ "type": "Feature", "properties": { "name": "Rippleton Park" }, "geometry": { "type": "Point", "coordinates": [ -79.359638, 43.740293 ] } },
{ "type": "Feature", "properties": { "name": "Longwood Park" }, "geometry": { "type": "Point", "coordinates": [ -79.362543, 43.748236 ] } },
{ "type": "Feature", "properties": { "name": "Mossgrove Park" }, "geometry": { "type": "Point", "coordinates": [ -79.364038, 43.753437 ] } },
{ "type": "Feature", "properties": { "name": "Kirkwood Park" }, "geometry": { "type": "Point", "coordinates": [ -79.361661, 43.755603 ] } },
{ "type": "Feature", "properties": { "name": "Linus Park" }, "geometry": { "type": "Point", "coordinates": [ -79.357586, 43.78868 ] } },
{ "type": "Feature", "properties": { "name": "Hobart Park" }, "geometry": { "type": "Point", "coordinates": [ -79.348869, 43.789751 ] } },
{ "type": "Feature", "properties": { "name": "Oriole Park" }, "geometry": { "type": "Point", "coordinates": [ -79.349866, 43.781191 ] } },
{ "type": "Feature", "properties": { "name": "Shaughnessy Public School Park" }, "geometry": { "type": "Point", "coordinates": [ -79.352545, 43.770363 ] } },
{ "type": "Feature", "properties": { "name": "Lithuania Park" }, "geometry": { "type": "Point", "coordinates": [ -79.463028, 43.658734 ] } },
{ "type": "Feature", "properties": { "name": "Village of Yorkville Park" }, "geometry": { "type": "Point", "coordinates": [ -79.391808, 43.669978 ] } },
{ "type": "Feature", "properties": { "name": "Butterfield Park" }, "geometry": { "type": "Point", "coordinates": [ -79.391105, 43.652697 ] } },
{ "type": "Feature", "properties": { "name": "Taddle Creek Park" }, "geometry": { "type": "Point", "coordinates": [ -79.39876, 43.669959 ] } },
{ "type": "Feature", "properties": { "name": "Huron Street Playground" }, "geometry": { "type": "Point", "coordinates": [ -79.401874, 43.669346 ] } },
{ "type": "Feature", "properties": { "name": "Willesden Park" }, "geometry": { "type": "Point", "coordinates": [ -79.362806, 43.794178 ] } },
{ "type": "Feature", "properties": { "name": "Pineway Park" }, "geometry": { "type": "Point", "coordinates": [ -79.375459, 43.796508 ] } },
{ "type": "Feature", "properties": { "name": "Matt Cohen Park" }, "geometry": { "type": "Point", "coordinates": [ -79.40328, 43.666356 ] } },
{ "type": "Feature", "properties": { "name": "Agnes Macphail Square" }, "geometry": { "type": "Point", "coordinates": [ -79.347597, 43.685556 ] } },
{ "type": "Feature", "properties": { "name": "Mt. Pleasant Park" }, "geometry": { "type": "Point", "coordinates": [ -79.441948, 43.867594 ] } },
{ "type": "Feature", "properties": { "name": "German Mills Meadow and Natural Habitat" }, "geometry": { "type": "Point", "coordinates": [ -79.373122, 43.817017 ] } },
{ "type": "Feature", "properties": { "name": "German Mills Meadow and Natural Habitat" }, "geometry": { "type": "Point", "coordinates": [ -79.377039, 43.816514 ] } },
{ "type": "Feature", "properties": { "name": "Stafford Park" }, "geometry": { "type": "Point", "coordinates": [ -79.438963, 43.771484 ] } },
{ "type": "Feature", "properties": { "name": "Richmond Green" }, "geometry": { "type": "Point", "coordinates": [ -79.401908, 43.900147 ] } },
{ "type": "Feature", "properties": { "name": "Maple Leaf Park" }, "geometry": { "type": "Point", "coordinates": [ -79.493446, 43.715848 ] } },
{ "type": "Feature", "properties": { "name": "Queens GreenBelt Park" }, "geometry": { "type": "Point", "coordinates": [ -79.484649, 43.712339 ] } },
{ "type": "Feature", "properties": { "name": "Leslie Greenbelt" }, "geometry": { "type": "Point", "coordinates": [ -79.364722, 43.805623 ] } },
{ "type": "Feature", "properties": { "name": "Coxwell Avenue Playground" }, "geometry": { "type": "Point", "coordinates": [ -79.321522, 43.677449 ] } },
{ "type": "Feature", "properties": { "name": "Monarch Park" }, "geometry": { "type": "Point", "coordinates": [ -79.325663, 43.677939 ] } },
{ "type": "Feature", "properties": { "name": "Felstead Park" }, "geometry": { "type": "Point", "coordinates": [ -79.329442, 43.679389 ] } },
{ "type": "Feature", "properties": { "name": "Glen Stewart Park" }, "geometry": { "type": "Point", "coordinates": [ -79.294701, 43.674405 ] } },
{ "type": "Feature", "properties": { "name": "Ivan Forrest Gardens" }, "geometry": { "type": "Point", "coordinates": [ -79.292824, 43.672339 ] } },
{ "type": "Feature", "properties": { "name": "Gwendolen Park" }, "geometry": { "type": "Point", "coordinates": [ -79.41981, 43.751314 ] } },
{ "type": "Feature", "properties": { "name": "Ellerslie Park" }, "geometry": { "type": "Point", "coordinates": [ -79.439669, 43.765213 ] } },
{ "type": "Feature", "properties": { "name": "Cassels Avenue Playground" }, "geometry": { "type": "Point", "coordinates": [ -79.306895, 43.680083 ] } },
{ "type": "Feature", "properties": { "name": "Rayfield Park" }, "geometry": { "type": "Point", "coordinates": [ -79.627041, 43.607421 ] } },
{ "type": "Feature", "properties": { "name": "Mississauga Valley" }, "geometry": { "type": "Point", "coordinates": [ -79.625566, 43.595469 ] } },
{ "type": "Feature", "properties": { "name": "Greenfield Park" }, "geometry": { "type": "Point", "coordinates": [ -79.620742, 43.600704 ] } },
{ "type": "Feature", "properties": { "name": "Woodington Green Park" }, "geometry": { "type": "Point", "coordinates": [ -79.632924, 43.602805 ] } },
{ "type": "Feature", "properties": { "name": "Parkway Green" }, "geometry": { "type": "Point", "coordinates": [ -79.630922, 43.605386 ] } },
{ "type": "Feature", "properties": { "name": "Camden Park" }, "geometry": { "type": "Point", "coordinates": [ -79.636967, 43.615112 ] } },
{ "type": "Feature", "properties": { "name": "Huron Heights Park" }, "geometry": { "type": "Point", "coordinates": [ -79.641851, 43.609953 ] } },
{ "type": "Feature", "properties": { "name": "Huron Park" }, "geometry": { "type": "Point", "coordinates": [ -79.632555, 43.558958 ] } },
{ "type": "Feature", "properties": { "name": "St. Clair Ravine" }, "geometry": { "type": "Point", "coordinates": [ -79.275657, 43.714338 ] } },
{ "type": "Feature", "properties": { "name": "Allison's Park" }, "geometry": { "type": "Point", "coordinates": [ -79.618135, 43.612877 ] } },
{ "type": "Feature", "properties": { "name": "Cheltenham Park" }, "geometry": { "type": "Point", "coordinates": [ -79.385185, 43.726699 ] } },
{ "type": "Feature", "properties": { "name": "McKechnie Woods" }, "geometry": { "type": "Point", "coordinates": [ -79.651981, 43.616709 ] } },
{ "type": "Feature", "properties": { "name": "Eastgate Park" }, "geometry": { "type": "Point", "coordinates": [ -79.646905, 43.61543 ] } },
{ "type": "Feature", "properties": { "name": "Promenade Green Park" }, "geometry": { "type": "Point", "coordinates": [ -79.461784, 43.804599 ] } },
{ "type": "Feature", "properties": { "name": "Glen Shields Park" }, "geometry": { "type": "Point", "coordinates": [ -79.479198, 43.792477 ] } },
{ "type": "Feature", "properties": { "name": "Oakvale Green" }, "geometry": { "type": "Point", "coordinates": [ -79.334224, 43.678298 ] } },
{ "type": "Feature", "properties": { "name": "Riviera Park" }, "geometry": { "type": "Point", "coordinates": [ -79.472537, 43.791836 ] } },
{ "type": "Feature", "properties": { "name": "Marita Paine Park" }, "geometry": { "type": "Point", "coordinates": [ -79.475271, 43.796183 ] } },
{ "type": "Feature", "properties": { "name": "Conley Park North" }, "geometry": { "type": "Point", "coordinates": [ -79.462399, 43.79201 ] } },
{ "type": "Feature", "properties": { "name": "Rockford Park" }, "geometry": { "type": "Point", "coordinates": [ -79.453656, 43.786672 ] } },
{ "type": "Feature", "properties": { "name": "Wade Gate Park" }, "geometry": { "type": "Point", "coordinates": [ -79.468046, 43.80151 ] } },
{ "type": "Feature", "properties": { "name": "Promenade Park" }, "geometry": { "type": "Point", "coordinates": [ -79.453923, 43.803611 ] } },
{ "type": "Feature", "properties": { "name": "Pierre Elliot Trudeau Park" }, "geometry": { "type": "Point", "coordinates": [ -79.454773, 43.805336 ] } },
{ "type": "Feature", "properties": { "name": "Joseph Aaron Park" }, "geometry": { "type": "Point", "coordinates": [ -79.463581, 43.794896 ] } },
{ "type": "Feature", "properties": { "name": "Mill Arbour Park" }, "geometry": { "type": "Point", "coordinates": [ -79.461985, 43.798394 ] } },
{ "type": "Feature", "properties": { "name": "Gilmore Park" }, "geometry": { "type": "Point", "coordinates": [ -79.457402, 43.794788 ] } },
{ "type": "Feature", "properties": { "name": "Downham Green Park" }, "geometry": { "type": "Point", "coordinates": [ -79.452716, 43.799077 ] } },
{ "type": "Feature", "properties": { "name": "Sandy Bruce Park" }, "geometry": { "type": "Point", "coordinates": [ -79.37071, 43.697651 ] } },
{ "type": "Feature", "properties": { "name": "Garnetwood Park" }, "geometry": { "type": "Point", "coordinates": [ -79.590195, 43.636927 ] } },
{ "type": "Feature", "properties": { "name": "Fleetwood Park" }, "geometry": { "type": "Point", "coordinates": [ -79.586975, 43.634219 ] } },
{ "type": "Feature", "properties": { "name": "Lambton - Kingsway Park" }, "geometry": { "type": "Point", "coordinates": [ -79.507823, 43.657613 ] } },
{ "type": "Feature", "properties": { "name": "Barondale Green" }, "geometry": { "type": "Point", "coordinates": [ -79.661891, 43.618124 ] } },
{ "type": "Feature", "properties": { "name": "Red Brush Park" }, "geometry": { "type": "Point", "coordinates": [ -79.644358, 43.62209 ] } },
{ "type": "Feature", "properties": { "name": "Pantry Park" }, "geometry": { "type": "Point", "coordinates": [ -79.301993, 43.667281 ] } },
{ "type": "Feature", "properties": { "name": "Beaches Park" }, "geometry": { "type": "Point", "coordinates": [ -79.298904, 43.666048 ] } },
{ "type": "Feature", "properties": { "name": "Paddock Park" }, "geometry": { "type": "Point", "coordinates": [ -79.364913, 43.81911 ] } },
{ "type": "Feature", "properties": { "name": "Greensborough Town Centre" }, "geometry": { "type": "Point", "coordinates": [ -79.249256, 43.902751 ] } },
{ "type": "Feature", "properties": { "name": "Risebrough Park" }, "geometry": { "type": "Point", "coordinates": [ -79.320895, 43.82558 ] } },
{ "type": "Feature", "properties": { "name": "Highgate Park" }, "geometry": { "type": "Point", "coordinates": [ -79.313813, 43.828509 ] } },
{ "type": "Feature", "properties": { "name": "Raybeck Park" }, "geometry": { "type": "Point", "coordinates": [ -79.275845, 43.881071 ] } },
{ "type": "Feature", "properties": { "name": "Milne Dam Conservation Park" }, "geometry": { "type": "Point", "coordinates": [ -79.270448, 43.864172 ] } },
{ "type": "Feature", "properties": { "name": "Bayview Reservoir Park" }, "geometry": { "type": "Point", "coordinates": [ -79.401996, 43.832012 ] } },
{ "type": "Feature", "properties": { "name": "Windy Hill Park" }, "geometry": { "type": "Point", "coordinates": [ -79.395635, 43.827152 ] } },
{ "type": "Feature", "properties": { "name": "Cake Bread Park" }, "geometry": { "type": "Point", "coordinates": [ -79.388927, 43.827652 ] } },
{ "type": "Feature", "properties": { "name": "Phin Park" }, "geometry": { "type": "Point", "coordinates": [ -79.336286, 43.677955 ] } },
{ "type": "Feature", "properties": { "name": "Bishops Cross Park" }, "geometry": { "type": "Point", "coordinates": [ -79.365325, 43.824275 ] } },
{ "type": "Feature", "properties": { "name": "Don Valley Brick Works Park" }, "geometry": { "type": "Point", "coordinates": [ -79.367088, 43.685172 ] } },
{ "type": "Feature", "properties": { "name": "Dane Parkette" }, "geometry": { "type": "Point", "coordinates": [ -79.453133, 43.715843 ] } },
{ "type": "Feature", "properties": { "name": "Conlands Parkette" }, "geometry": { "type": "Point", "coordinates": [ -79.452542, 43.717462 ] } },
{ "type": "Feature", "properties": { "name": "Prince Charles Park" }, "geometry": { "type": "Point", "coordinates": [ -79.435698, 43.722665 ] } },
{ "type": "Feature", "properties": { "name": "Brickyard Park" }, "geometry": { "type": "Point", "coordinates": [ -79.628277, 43.573544 ] } },
{ "type": "Feature", "properties": { "name": "Port Credit Memorial Park" }, "geometry": { "type": "Point", "coordinates": [ -79.588543, 43.551886 ] } },
{ "type": "Feature", "properties": { "name": "Barbara Hall Park" }, "geometry": { "type": "Point", "coordinates": [ -79.380468, 43.666705 ] } },
{ "type": "Feature", "properties": { "name": "Ranee Park" }, "geometry": { "type": "Point", "coordinates": [ -79.453578, 43.722663 ] } },
{ "type": "Feature", "properties": { "name": "Wigmore Park" }, "geometry": { "type": "Point", "coordinates": [ -79.31282, 43.73075 ] } },
{ "type": "Feature", "properties": { "name": "Sweeney Drive" }, "geometry": { "type": "Point", "coordinates": [ -79.316085, 43.736258 ] } },
{ "type": "Feature", "properties": { "name": "Carlton Park" }, "geometry": { "type": "Point", "coordinates": [ -79.330321, 43.868629 ] } },
{ "type": "Feature", "properties": { "name": "Toogood Park" }, "geometry": { "type": "Point", "coordinates": [ -79.3198, 43.86476 ] } },
{ "type": "Feature", "properties": { "name": "Crosby Park" }, "geometry": { "type": "Point", "coordinates": [ -79.314942, 43.868398 ] } },
{ "type": "Feature", "properties": { "name": "Broadview Subway Station Parkette" }, "geometry": { "type": "Point", "coordinates": [ -79.358414, 43.677255 ] } },
{ "type": "Feature", "properties": { "name": "Flagstaff Park" }, "geometry": { "type": "Point", "coordinates": [ -79.590626, 43.721176 ] } },
{ "type": "Feature", "properties": { "name": "Elie Wiesel Park" }, "geometry": { "type": "Point", "coordinates": [ -79.438121, 43.745692 ] } },
{ "type": "Feature", "properties": { "name": "Scarden Park" }, "geometry": { "type": "Point", "coordinates": [ -79.304612, 43.77485 ] } },
{ "type": "Feature", "properties": { "name": "Vradenberg Park" }, "geometry": { "type": "Point", "coordinates": [ -79.309814, 43.774873 ] } },
{ "type": "Feature", "properties": { "name": "Snowhill Park" }, "geometry": { "type": "Point", "coordinates": [ -79.263268, 43.780682 ] } },
{ "type": "Feature", "properties": { "name": "West Rouge Park" }, "geometry": { "type": "Point", "coordinates": [ -79.125429, 43.791607 ] } },
{ "type": "Feature", "properties": { "name": "Fanfare Park" }, "geometry": { "type": "Point", "coordinates": [ -79.139542, 43.791837 ] } },
{ "type": "Feature", "properties": { "name": "Robinson Park" }, "geometry": { "type": "Point", "coordinates": [ -79.274356, 43.873342 ] } },
{ "type": "Feature", "properties": { "name": "Dorset Park" }, "geometry": { "type": "Point", "coordinates": [ -79.284326, 43.761536 ] } },
{ "type": "Feature", "properties": { "name": "Turpin Avenue Park" }, "geometry": { "type": "Point", "coordinates": [ -79.555243, 43.723129 ] } },
{ "type": "Feature", "properties": { "name": "Westway Park" }, "geometry": { "type": "Point", "coordinates": [ -79.541549, 43.687776 ] } },
{ "type": "Feature", "properties": { "name": "Humber Arboretum" }, "geometry": { "type": "Point", "coordinates": [ -79.612659, 43.726731 ] } },
{ "type": "Feature", "properties": { "name": "Pine Point Park" }, "geometry": { "type": "Point", "coordinates": [ -79.544066, 43.716163 ] } },
{ "type": "Feature", "properties": { "name": "Mallaby Park" }, "geometry": { "type": "Point", "coordinates": [ -79.535068, 43.706885 ] } },
{ "type": "Feature", "properties": { "name": "Cruickshank Park" }, "geometry": { "type": "Point", "coordinates": [ -79.523871, 43.700811 ] } },
{ "type": "Feature", "properties": { "name": "Earlscourt Park" }, "geometry": { "type": "Point", "coordinates": [ -79.451511, 43.673643 ] } },
{ "type": "Feature", "properties": { "name": "Fairbank Memorial Park" }, "geometry": { "type": "Point", "coordinates": [ -79.44764, 43.691672 ] } },
{ "type": "Feature", "properties": { "name": "Smythe Park" }, "geometry": { "type": "Point", "coordinates": [ -79.499316, 43.674579 ] } },
{ "type": "Feature", "properties": { "name": "Rowntree Mills Park" }, "geometry": { "type": "Point", "coordinates": [ -79.577963, 43.753384 ] } },
{ "type": "Feature", "properties": { "name": "Finch-Islington Park" }, "geometry": { "type": "Point", "coordinates": [ -79.570026, 43.744773 ] } },
{ "type": "Feature", "properties": { "name": "Derrydowns Park" }, "geometry": { "type": "Point", "coordinates": [ -79.503268, 43.750574 ] } },
{ "type": "Feature", "properties": { "name": "Roding Park" }, "geometry": { "type": "Point", "coordinates": [ -79.493105, 43.7275 ] } },
{ "type": "Feature", "properties": { "name": "Heathrow Park" }, "geometry": { "type": "Point", "coordinates": [ -79.507475, 43.724842 ] } },
{ "type": "Feature", "properties": { "name": "Chalkfarm Park" }, "geometry": { "type": "Point", "coordinates": [ -79.515804, 43.725272 ] } },
{ "type": "Feature", "properties": { "name": "Hinder Area" }, "geometry": { "type": "Point", "coordinates": [ -79.435739, 43.760541 ] } },
{ "type": "Feature", "properties": { "name": "Irving W Chapley Park" }, "geometry": { "type": "Point", "coordinates": [ -79.455231, 43.761875 ] } },
{ "type": "Feature", "properties": { "name": "Downsview Park" }, "geometry": { "type": "Point", "coordinates": [ -79.48077, 43.741382 ] } },
{ "type": "Feature", "properties": { "name": "Hendon Park" }, "geometry": { "type": "Point", "coordinates": [ -79.420845, 43.781486 ] } },
{ "type": "Feature", "properties": { "name": "Edithvale Park" }, "geometry": { "type": "Point", "coordinates": [ -79.425294, 43.776417 ] } },
{ "type": "Feature", "properties": { "name": "North Humber Park" }, "geometry": { "type": "Point", "coordinates": [ -79.587744, 43.757441 ] } },
{ "type": "Feature", "properties": { "name": "Sunnydale Acres Park" }, "geometry": { "type": "Point", "coordinates": [ -79.578792, 43.723892 ] } },
{ "type": "Feature", "properties": { "name": "Rexdale Park" }, "geometry": { "type": "Point", "coordinates": [ -79.565547, 43.723846 ] } },
{ "type": "Feature", "properties": { "name": "Densgrove Park" }, "geometry": { "type": "Point", "coordinates": [ -79.221892, 43.76572 ] } },
{ "type": "Feature", "properties": { "name": "Lusted Park" }, "geometry": { "type": "Point", "coordinates": [ -79.23223, 43.762225 ] } },
{ "type": "Feature", "properties": { "name": "Caledonia Park" }, "geometry": { "type": "Point", "coordinates": [ -79.464996, 43.713684 ] } },
{ "type": "Feature", "properties": { "name": "North Park" }, "geometry": { "type": "Point", "coordinates": [ -79.474182, 43.715811 ] } },
{ "type": "Feature", "properties": { "name": "Harding Park" }, "geometry": { "type": "Point", "coordinates": [ -79.498576, 43.699607 ] } },
{ "type": "Feature", "properties": { "name": "Harding Park" }, "geometry": { "type": "Point", "coordinates": [ -79.497094, 43.699139 ] } },
{ "type": "Feature", "properties": { "name": "Hearst Circle Parkette" }, "geometry": { "type": "Point", "coordinates": [ -79.495388, 43.698223 ] } },
{ "type": "Feature", "properties": { "name": "Fountainhead Park" }, "geometry": { "type": "Point", "coordinates": [ -79.497367, 43.762325 ] } },
{ "type": "Feature", "properties": { "name": "Westview Greenbelt" }, "geometry": { "type": "Point", "coordinates": [ -79.486526, 43.698517 ] } },
{ "type": "Feature", "properties": { "name": "Gulliver Park" }, "geometry": { "type": "Point", "coordinates": [ -79.479748, 43.698156 ] } },
{ "type": "Feature", "properties": { "name": "Fergy Brown Park" }, "geometry": { "type": "Point", "coordinates": [ -79.49681, 43.686716 ] } },
{ "type": "Feature", "properties": { "name": "Eglinton Flats" }, "geometry": { "type": "Point", "coordinates": [ -79.502962, 43.686056 ] } },
{ "type": "Feature", "properties": { "name": "Wadsworth Park" }, "geometry": { "type": "Point", "coordinates": [ -79.457966, 43.672309 ] } },
{ "type": "Feature", "properties": { "name": "Cataraqui Park" }, "geometry": { "type": "Point", "coordinates": [ -79.278436, 43.701107 ] } },
{ "type": "Feature", "properties": { "name": "Holley Park" }, "geometry": { "type": "Point", "coordinates": [ -79.530502, 43.706089 ] } },
{ "type": "Feature", "properties": { "name": "Windwood Park" }, "geometry": { "type": "Point", "coordinates": [ -79.605963, 43.73209 ] } },
{ "type": "Feature", "properties": { "name": "Chandos Park South" }, "geometry": { "type": "Point", "coordinates": [ -79.441259, 43.670807 ] } },
{ "type": "Feature", "properties": { "name": "Chandos Park North" }, "geometry": { "type": "Point", "coordinates": [ -79.442539, 43.671052 ] } },
{ "type": "Feature", "properties": { "name": "Islington Park" }, "geometry": { "type": "Point", "coordinates": [ -79.569035, 43.752177 ] } },
{ "type": "Feature", "properties": { "name": "Cedarbrook Park" }, "geometry": { "type": "Point", "coordinates": [ -79.60534, 43.614097 ] } },
{ "type": "Feature", "properties": { "name": "Mary Fix Park" }, "geometry": { "type": "Point", "coordinates": [ -79.599306, 43.565484 ] } },
{ "type": "Feature", "properties": { "name": "Kingsbridge Common" }, "geometry": { "type": "Point", "coordinates": [ -79.653393, 43.602724 ] } },
{ "type": "Feature", "properties": { "name": "Hawthorne Valley Park" }, "geometry": { "type": "Point", "coordinates": [ -79.663824, 43.605619 ] } },
{ "type": "Feature", "properties": { "name": "Greyshale Park" }, "geometry": { "type": "Point", "coordinates": [ -79.663262, 43.601522 ] } },
{ "type": "Feature", "properties": { "name": "Erin Woods Park" }, "geometry": { "type": "Point", "coordinates": [ -79.713503, 43.566 ] } },
{ "type": "Feature", "properties": { "name": "Conacher Park" }, "geometry": { "type": "Point", "coordinates": [ -79.39798, 43.795367 ] } },
{ "type": "Feature", "properties": { "name": "Caswell Park" }, "geometry": { "type": "Point", "coordinates": [ -79.402368, 43.796298 ] } },
{ "type": "Feature", "properties": { "name": "Echo Valley Park" }, "geometry": { "type": "Point", "coordinates": [ -79.543438, 43.652447 ] } },
{ "type": "Feature", "properties": { "name": "Lloyd Manor Park" }, "geometry": { "type": "Point", "coordinates": [ -79.554136, 43.672214 ] } },
{ "type": "Feature", "properties": { "name": "Woodland Meadows" }, "geometry": { "type": "Point", "coordinates": [ -79.64433, 43.563719 ] } },
{ "type": "Feature", "properties": { "name": "Ron Lenyk Springfield Park" }, "geometry": { "type": "Point", "coordinates": [ -79.654679, 43.558683 ] } },
{ "type": "Feature", "properties": { "name": "Deer Run Park" }, "geometry": { "type": "Point", "coordinates": [ -79.666335, 43.570917 ] } },
{ "type": "Feature", "properties": { "name": "Sawgrass Park" }, "geometry": { "type": "Point", "coordinates": [ -79.667644, 43.574978 ] } },
{ "type": "Feature", "properties": { "name": "Ashgate Park" }, "geometry": { "type": "Point", "coordinates": [ -79.658424, 43.579134 ] } },
{ "type": "Feature", "properties": { "name": "Wakefield Common" }, "geometry": { "type": "Point", "coordinates": [ -79.658089, 43.581501 ] } },
{ "type": "Feature", "properties": { "name": "Riverwood Park" }, "geometry": { "type": "Point", "coordinates": [ -79.675139, 43.564114 ] } },
{ "type": "Feature", "properties": { "name": "Bruce Reynolds Park" }, "geometry": { "type": "Point", "coordinates": [ -79.642651, 43.535863 ] } },
{ "type": "Feature", "properties": { "name": "Sherwood Green Park" }, "geometry": { "type": "Point", "coordinates": [ -79.659508, 43.538982 ] } },
{ "type": "Feature", "properties": { "name": "Woodland Chase Park" }, "geometry": { "type": "Point", "coordinates": [ -79.699056, 43.562196 ] } },
{ "type": "Feature", "properties": { "name": "Tom Chater Memorial Park" }, "geometry": { "type": "Point", "coordinates": [ -79.700195, 43.528121 ] } },
{ "type": "Feature", "properties": { "name": "Garthwood Park" }, "geometry": { "type": "Point", "coordinates": [ -79.693722, 43.525473 ] } },
{ "type": "Feature", "properties": { "name": "Thorncrest Park" }, "geometry": { "type": "Point", "coordinates": [ -79.70871, 43.531711 ] } },
{ "type": "Feature", "properties": { "name": "South Millway Park" }, "geometry": { "type": "Point", "coordinates": [ -79.677368, 43.5468 ] } },
{ "type": "Feature", "properties": { "name": "Trooper Marc Diab Memorial Park" }, "geometry": { "type": "Point", "coordinates": [ -79.697535, 43.589558 ] } },
{ "type": "Feature", "properties": { "name": "Vanessa Park" }, "geometry": { "type": "Point", "coordinates": [ -79.606331, 43.548852 ] } },
{ "type": "Feature", "properties": { "name": "Flemingdon Park" }, "geometry": { "type": "Point", "coordinates": [ -79.333342, 43.712859 ] } },
{ "type": "Feature", "properties": { "name": "Flemingdon Park" }, "geometry": { "type": "Point", "coordinates": [ -79.329443, 43.713919 ] } },
{ "type": "Feature", "properties": { "name": "Flemingdon Park" }, "geometry": { "type": "Point", "coordinates": [ -79.326509, 43.714273 ] } },
{ "type": "Feature", "properties": { "name": "Springbank Meadows Park" }, "geometry": { "type": "Point", "coordinates": [ -79.645071, 43.531759 ] } },
{ "type": "Feature", "properties": { "name": "Ceremonial Green Park" }, "geometry": { "type": "Point", "coordinates": [ -79.672898, 43.596418 ] } },
{ "type": "Feature", "properties": { "name": "Century City Park" }, "geometry": { "type": "Point", "coordinates": [ -79.677537, 43.591257 ] } },
{ "type": "Feature", "properties": { "name": "Fallingbrook Community Park" }, "geometry": { "type": "Point", "coordinates": [ -79.681479, 43.586551 ] } },
{ "type": "Feature", "properties": { "name": "Rosebush Common" }, "geometry": { "type": "Point", "coordinates": [ -79.683304, 43.575431 ] } },
{ "type": "Feature", "properties": { "name": "Turney Woods" }, "geometry": { "type": "Point", "coordinates": [ -79.729589, 43.578651 ] } },
{ "type": "Feature", "properties": { "name": "Castlebridge Common" }, "geometry": { "type": "Point", "coordinates": [ -79.728412, 43.568826 ] } },
{ "type": "Feature", "properties": { "name": "Castlegreen Meadows" }, "geometry": { "type": "Point", "coordinates": [ -79.735432, 43.567542 ] } },
{ "type": "Feature", "properties": { "name": "York Mills Valley Park" }, "geometry": { "type": "Point", "coordinates": [ -79.404334, 43.739591 ] } },
{ "type": "Feature", "properties": { "name": "Woodland Park" }, "geometry": { "type": "Point", "coordinates": [ -79.661012, 43.564802 ] } },
{ "type": "Feature", "properties": { "name": "Avongate Park" }, "geometry": { "type": "Point", "coordinates": [ -79.635405, 43.556097 ] } },
{ "type": "Feature", "properties": { "name": "Remberto Navia Sports Field" }, "geometry": { "type": "Point", "coordinates": [ -79.524775, 43.759197 ] } },
{ "type": "Feature", "properties": { "name": "City View Park" }, "geometry": { "type": "Point", "coordinates": [ -79.643887, 43.578277 ] } },
{ "type": "Feature", "properties": { "name": "George Chater Park" }, "geometry": { "type": "Point", "coordinates": [ -79.479909, 43.650881 ] } },
{ "type": "Feature", "properties": { "name": "Neil McLellan Park" }, "geometry": { "type": "Point", "coordinates": [ -79.477163, 43.651498 ] } },
{ "type": "Feature", "properties": { "name": "Lake Wabukayne Park" }, "geometry": { "type": "Point", "coordinates": [ -79.740274, 43.580063 ] } },
{ "type": "Feature", "properties": { "name": "Bell Harbour Park" }, "geometry": { "type": "Point", "coordinates": [ -79.731017, 43.572908 ] } },
{ "type": "Feature", "properties": { "name": "Sugar Maple Woods" }, "geometry": { "type": "Point", "coordinates": [ -79.728203, 43.561853 ] } },
{ "type": "Feature", "properties": { "name": "Dunlop Park" }, "geometry": { "type": "Point", "coordinates": [ -79.267258, 43.712625 ] } },
{ "type": "Feature", "properties": { "name": "Bloor Athletic Field" }, "geometry": { "type": "Point", "coordinates": [ -79.607208, 43.606194 ] } },
{ "type": "Feature", "properties": { "name": "York Mills Park" }, "geometry": { "type": "Point", "coordinates": [ -79.382675, 43.74732 ] } },
{ "type": "Feature", "properties": { "name": "Rean Park" }, "geometry": { "type": "Point", "coordinates": [ -79.381174, 43.765807 ] } },
{ "type": "Feature", "properties": { "name": "Ethennonnhawahstihnen' Park" }, "geometry": { "type": "Point", "coordinates": [ -79.373482, 43.767535 ] } },
{ "type": "Feature", "properties": { "name": "Talara Park" }, "geometry": { "type": "Point", "coordinates": [ -79.376652, 43.766049 ] } },
{ "type": "Feature", "properties": { "name": "Logan Green Field" }, "geometry": { "type": "Point", "coordinates": [ -79.349363, 43.678879 ] } },
{ "type": "Feature", "properties": { "name": "Carlaw Avenue Parkette" }, "geometry": { "type": "Point", "coordinates": [ -79.346978, 43.679307 ] } },
{ "type": "Feature", "properties": { "name": "Duncairn Downs" }, "geometry": { "type": "Point", "coordinates": [ -79.724129, 43.558392 ] } },
{ "type": "Feature", "properties": { "name": "Quenippenon Meadows Community Park" }, "geometry": { "type": "Point", "coordinates": [ -79.71593, 43.56192 ] } },
{ "type": "Feature", "properties": { "name": "Manor Hill Park" }, "geometry": { "type": "Point", "coordinates": [ -79.710356, 43.571896 ] } },
{ "type": "Feature", "properties": { "name": "Forest Hill Park" }, "geometry": { "type": "Point", "coordinates": [ -79.702545, 43.563919 ] } },
{ "type": "Feature", "properties": { "name": "Crawford Green" }, "geometry": { "type": "Point", "coordinates": [ -79.708363, 43.553965 ] } },
{ "type": "Feature", "properties": { "name": "Maywood Park" }, "geometry": { "type": "Point", "coordinates": [ -79.271293, 43.723157 ] } },
{ "type": "Feature", "properties": { "name": "Cherry Hill" }, "geometry": { "type": "Point", "coordinates": [ -79.602463, 43.601876 ] } },
{ "type": "Feature", "properties": { "name": "Spruce Park" }, "geometry": { "type": "Point", "coordinates": [ -79.579298, 43.56508 ] } },
{ "type": "Feature", "properties": { "name": "Glen Erin Trail Park" }, "geometry": { "type": "Point", "coordinates": [ -79.700366, 43.540393 ] } },
{ "type": "Feature", "properties": { "name": "Staghorn Woods Park" }, "geometry": { "type": "Point", "coordinates": [ -79.677052, 43.603206 ] } },
{ "type": "Feature", "properties": { "name": "Bancroft Park" }, "geometry": { "type": "Point", "coordinates": [ -79.707152, 43.613193 ] } },
{ "type": "Feature", "properties": { "name": "Swinbourne Meadows" }, "geometry": { "type": "Point", "coordinates": [ -79.70634, 43.608043 ] } },
{ "type": "Feature", "properties": { "name": "Thornlodge Park" }, "geometry": { "type": "Point", "coordinates": [ -79.671023, 43.525176 ] } },
{ "type": "Feature", "properties": { "name": "King's Masting Park" }, "geometry": { "type": "Point", "coordinates": [ -79.685808, 43.531996 ] } },
{ "type": "Feature", "properties": { "name": "Woodhurst Heights" }, "geometry": { "type": "Point", "coordinates": [ -79.691992, 43.536472 ] } },
{ "type": "Feature", "properties": { "name": "Peelton Park" }, "geometry": { "type": "Point", "coordinates": [ -79.745418, 43.659238 ] } },
{ "type": "Feature", "properties": { "name": "Kennedy Valley Park" }, "geometry": { "type": "Point", "coordinates": [ -79.710125, 43.673872 ] } },
{ "type": "Feature", "properties": { "name": "Fallingdale Park" }, "geometry": { "type": "Point", "coordinates": [ -79.711893, 43.724555 ] } },
{ "type": "Feature", "properties": { "name": "Earnscliffe Park" }, "geometry": { "type": "Point", "coordinates": [ -79.703218, 43.723679 ] } },
{ "type": "Feature", "properties": { "name": "Dearbourne Park" }, "geometry": { "type": "Point", "coordinates": [ -79.696453, 43.713439 ] } },
{ "type": "Feature", "properties": { "name": "Aloma Park" }, "geometry": { "type": "Point", "coordinates": [ -79.703119, 43.708952 ] } },
{ "type": "Feature", "properties": { "name": "Addington Park" }, "geometry": { "type": "Point", "coordinates": [ -79.707085, 43.711633 ] } },
{ "type": "Feature", "properties": { "name": "Crawley Park" }, "geometry": { "type": "Point", "coordinates": [ -79.71112, 43.714754 ] } },
{ "type": "Feature", "properties": { "name": "Clark Park" }, "geometry": { "type": "Point", "coordinates": [ -79.715411, 43.713141 ] } },
{ "type": "Feature", "properties": { "name": "Parr Lake South Park" }, "geometry": { "type": "Point", "coordinates": [ -79.741698, 43.712539 ] } },
{ "type": "Feature", "properties": { "name": "Norton Place Park" }, "geometry": { "type": "Point", "coordinates": [ -79.728846, 43.709023 ] } },
{ "type": "Feature", "properties": { "name": "Maitland Park North" }, "geometry": { "type": "Point", "coordinates": [ -79.740981, 43.732258 ] } },
{ "type": "Feature", "properties": { "name": "Maitland Park South" }, "geometry": { "type": "Point", "coordinates": [ -79.737278, 43.730421 ] } },
{ "type": "Feature", "properties": { "name": "Pheasant Run Park" }, "geometry": { "type": "Point", "coordinates": [ -79.697823, 43.544669 ] } },
{ "type": "Feature", "properties": { "name": "Brookmede Park" }, "geometry": { "type": "Point", "coordinates": [ -79.674254, 43.537273 ] } },
{ "type": "Feature", "properties": { "name": "South Common Park" }, "geometry": { "type": "Point", "coordinates": [ -79.688026, 43.540641 ] } },
{ "type": "Feature", "properties": { "name": "Jaycee Park" }, "geometry": { "type": "Point", "coordinates": [ -79.598077, 43.624276 ] } },
{ "type": "Feature", "properties": { "name": "Heathercrest Park" }, "geometry": { "type": "Point", "coordinates": [ -79.562791, 43.667047 ] } },
{ "type": "Feature", "properties": { "name": "Joyce Parkette" }, "geometry": { "type": "Point", "coordinates": [ -79.467302, 43.709064 ] } },
{ "type": "Feature", "properties": { "name": "Douglas Park" }, "geometry": { "type": "Point", "coordinates": [ -79.088973, 43.825354 ] } },
{ "type": "Feature", "properties": { "name": "Kenworthy Park" }, "geometry": { "type": "Point", "coordinates": [ -79.283282, 43.690539 ] } },
{ "type": "Feature", "properties": { "name": "Mitchell Park" }, "geometry": { "type": "Point", "coordinates": [ -79.081008, 43.826888 ] } },
{ "type": "Feature", "properties": { "name": "Humber Bay Park West" }, "geometry": { "type": "Point", "coordinates": [ -79.479339, 43.617251 ] } },
{ "type": "Feature", "properties": { "name": "Humber Bay Park East" }, "geometry": { "type": "Point", "coordinates": [ -79.475025, 43.622205 ] } },
{ "type": "Feature", "properties": { "name": "Palace Pier Park" }, "geometry": { "type": "Point", "coordinates": [ -79.475058, 43.627822 ] } },
{ "type": "Feature", "properties": { "name": "Sir Casimir Gzowski Park" }, "geometry": { "type": "Point", "coordinates": [ -79.465908, 43.634996 ] } },
{ "type": "Feature", "properties": { "name": "Rennie Park" }, "geometry": { "type": "Point", "coordinates": [ -79.47278, 43.642803 ] } },
{ "type": "Feature", "properties": { "name": "Rambert Crescent Parkette" }, "geometry": { "type": "Point", "coordinates": [ -79.480286, 43.645532 ] } },
{ "type": "Feature", "properties": { "name": "Dove Stone Park" }, "geometry": { "type": "Point", "coordinates": [ -79.427059, 43.857795 ] } },
{ "type": "Feature", "properties": { "name": "Capri Park" }, "geometry": { "type": "Point", "coordinates": [ -79.564909, 43.654177 ] } },
{ "type": "Feature", "properties": { "name": "East Mall Park" }, "geometry": { "type": "Point", "coordinates": [ -79.557304, 43.642396 ] } },
{ "type": "Feature", "properties": { "name": "Thomson Memorial Park" }, "geometry": { "type": "Point", "coordinates": [ -79.253974, 43.758848 ] } },
{ "type": "Feature", "properties": { "name": "Silverhill Park" }, "geometry": { "type": "Point", "coordinates": [ -79.550223, 43.633831 ] } },
{ "type": "Feature", "properties": { "name": "Glen Park" }, "geometry": { "type": "Point", "coordinates": [ -79.552876, 43.650831 ] } },
{ "type": "Feature", "properties": { "name": "Cronin Park" }, "geometry": { "type": "Point", "coordinates": [ -79.556602, 43.64601 ] } },
{ "type": "Feature", "properties": { "name": "Cloverdale Park" }, "geometry": { "type": "Point", "coordinates": [ -79.544569, 43.633847 ] } },
{ "type": "Feature", "properties": { "name": "Centre Park" }, "geometry": { "type": "Point", "coordinates": [ -79.416894, 43.791407 ] } },
{ "type": "Feature", "properties": { "name": "Greenfield Park" }, "geometry": { "type": "Point", "coordinates": [ -79.544917, 43.63861 ] } },
{ "type": "Feature", "properties": { "name": "Queensland Park" }, "geometry": { "type": "Point", "coordinates": [ -79.522379, 43.626048 ] } },
{ "type": "Feature", "properties": { "name": "G. Ross Lord Park" }, "geometry": { "type": "Point", "coordinates": [ -79.461744, 43.777975 ] } },
{ "type": "Feature", "properties": { "name": "Rouge Valley Park" }, "geometry": { "type": "Point", "coordinates": [ -79.251484, 43.870344 ] } },
{ "type": "Feature", "properties": { "name": "Rotary Peace Park" }, "geometry": { "type": "Point", "coordinates": [ -79.506381, 43.5946 ] } },
{ "type": "Feature", "properties": { "name": "Austin Drive Park" }, "geometry": { "type": "Point", "coordinates": [ -79.299396, 43.865522 ] } },
{ "type": "Feature", "properties": { "name": "Newport Square Park" }, "geometry": { "type": "Point", "coordinates": [ -79.447995, 43.822235 ] } },
{ "type": "Feature", "properties": { "name": "Pickwick Green" }, "geometry": { "type": "Point", "coordinates": [ -79.700907, 43.596662 ] } },
{ "type": "Feature", "properties": { "name": "Wellesworth Park" }, "geometry": { "type": "Point", "coordinates": [ -79.574314, 43.656611 ] } },
{ "type": "Feature", "properties": { "name": "Dennis Flynn Park" }, "geometry": { "type": "Point", "coordinates": [ -79.566127, 43.64079 ] } },
{ "type": "Feature", "properties": { "name": "Connorvale Park" }, "geometry": { "type": "Point", "coordinates": [ -79.528786, 43.609838 ] } },
{ "type": "Feature", "properties": { "name": "Douglas Park" }, "geometry": { "type": "Point", "coordinates": [ -79.536995, 43.612023 ] } },
{ "type": "Feature", "properties": { "name": "Glencrest Park" }, "geometry": { "type": "Point", "coordinates": [ -79.391474, 43.815405 ] } },
{ "type": "Feature", "properties": { "name": "Gooderham Park" }, "geometry": { "type": "Point", "coordinates": [ -79.724243, 43.628587 ] } },
{ "type": "Feature", "properties": { "name": "Pathfinder Way Park" }, "geometry": { "type": "Point", "coordinates": [ -79.727426, 43.607922 ] } },
{ "type": "Feature", "properties": { "name": "Colonel Samuel Smith Park" }, "geometry": { "type": "Point", "coordinates": [ -79.513396, 43.592895 ] } },
{ "type": "Feature", "properties": { "name": "Cedargrove Park" }, "geometry": { "type": "Point", "coordinates": [ -79.230477, 43.748719 ] } },
{ "type": "Feature", "properties": { "name": "Horton Park" }, "geometry": { "type": "Point", "coordinates": [ -79.24282, 43.736355 ] } },
{ "type": "Feature", "properties": { "name": "Port Union Village Common" }, "geometry": { "type": "Point", "coordinates": [ -79.134875, 43.776316 ] } },
{ "type": "Feature", "properties": { "name": "St. Andrew’s Park" }, "geometry": { "type": "Point", "coordinates": [ -79.392116, 43.754853 ] } },
{ "type": "Feature", "properties": { "name": "St. Andrew’s Park" }, "geometry": { "type": "Point", "coordinates": [ -79.387778, 43.751876 ] } },
{ "type": "Feature", "properties": { "name": "Lakeshore Boulevard Parklands" }, "geometry": { "type": "Point", "coordinates": [ -79.441456, 43.635048 ] } },
{ "type": "Feature", "properties": { "name": "Marilyn Bell Park" }, "geometry": { "type": "Point", "coordinates": [ -79.432548, 43.631425 ] } },
{ "type": "Feature", "properties": { "name": "Redgrave Park" }, "geometry": { "type": "Point", "coordinates": [ -79.571409, 43.682733 ] } },
{ "type": "Feature", "properties": { "name": "Ron Searle Park" }, "geometry": { "type": "Point", "coordinates": [ -79.559955, 43.598012 ] } },
{ "type": "Feature", "properties": { "name": "Leaside Park" }, "geometry": { "type": "Point", "coordinates": [ -79.350119, 43.702213 ] } },
{ "type": "Feature", "properties": { "name": "Lascelles Park" }, "geometry": { "type": "Point", "coordinates": [ -79.739508, 43.720998 ] } },
{ "type": "Feature", "properties": { "name": "Serson Park" }, "geometry": { "type": "Point", "coordinates": [ -79.561479, 43.582483 ] } },
{ "type": "Feature", "properties": { "name": "Snowcap Park" }, "geometry": { "type": "Point", "coordinates": [ -79.730757, 43.763434 ] } },
{ "type": "Feature", "properties": { "name": "Laburnham Park" }, "geometry": { "type": "Point", "coordinates": [ -79.528028, 43.600144 ] } },
{ "type": "Feature", "properties": { "name": "Clarinda Park" }, "geometry": { "type": "Point", "coordinates": [ -79.369113, 43.774635 ] } },
{ "type": "Feature", "properties": { "name": "Hawksbury Park" }, "geometry": { "type": "Point", "coordinates": [ -79.383038, 43.770865 ] } },
{ "type": "Feature", "properties": { "name": "Robertson Parkette" }, "geometry": { "type": "Point", "coordinates": [ -79.324028, 43.68296 ] } },
{ "type": "Feature", "properties": { "name": "Centennial Park" }, "geometry": { "type": "Point", "coordinates": [ -79.590367, 43.652975 ] } },
{ "type": "Feature", "properties": { "name": "Rockwood Glen Park" }, "geometry": { "type": "Point", "coordinates": [ -79.605497, 43.630436 ] } },
{ "type": "Feature", "properties": { "name": "County Court Park" }, "geometry": { "type": "Point", "coordinates": [ -79.722697, 43.663157 ] } },
{ "type": "Feature", "properties": { "name": "Danville Park" }, "geometry": { "type": "Point", "coordinates": [ -79.675444, 43.647629 ] } },
{ "type": "Feature", "properties": { "name": "Britannia Woods Community Forest" }, "geometry": { "type": "Point", "coordinates": [ -79.65248, 43.625173 ] } },
{ "type": "Feature", "properties": { "name": "Velmar Downs Park" }, "geometry": { "type": "Point", "coordinates": [ -79.568493, 43.822622 ] } },
{ "type": "Feature", "properties": { "name": "Stratford Park" }, "geometry": { "type": "Point", "coordinates": [ -79.379759, 43.721642 ] } },
{ "type": "Feature", "properties": { "name": "Charlotte Maher Park" }, "geometry": { "type": "Point", "coordinates": [ -79.38079, 43.711944 ] } },
{ "type": "Feature", "properties": { "name": "L'Amoreaux Park" }, "geometry": { "type": "Point", "coordinates": [ -79.30789, 43.812449 ] } },
{ "type": "Feature", "properties": { "name": "L'Amoureaux Park" }, "geometry": { "type": "Point", "coordinates": [ -79.306354, 43.804745 ] } },
{ "type": "Feature", "properties": { "name": "Shepton Way Park" }, "geometry": { "type": "Point", "coordinates": [ -79.305673, 43.816219 ] } },
{ "type": "Feature", "properties": { "name": "Huntsmill Park" }, "geometry": { "type": "Point", "coordinates": [ -79.328423, 43.810448 ] } },
{ "type": "Feature", "properties": { "name": "Fundy Bay Park" }, "geometry": { "type": "Point", "coordinates": [ -79.318095, 43.810514 ] } },
{ "type": "Feature", "properties": { "name": "Iroquois Park" }, "geometry": { "type": "Point", "coordinates": [ -79.266638, 43.803231 ] } },
{ "type": "Feature", "properties": { "name": "Port Royal Park" }, "geometry": { "type": "Point", "coordinates": [ -79.287565, 43.817809 ] } },
{ "type": "Feature", "properties": { "name": "Milliken Park" }, "geometry": { "type": "Point", "coordinates": [ -79.270477, 43.829484 ] } },
{ "type": "Feature", "properties": { "name": "Neilson Park" }, "geometry": { "type": "Point", "coordinates": [ -79.224352, 43.813323 ] } },
{ "type": "Feature", "properties": { "name": "Littles Park" }, "geometry": { "type": "Point", "coordinates": [ -79.206336, 43.816013 ] } },
{ "type": "Feature", "properties": { "name": "Harvest Moon Park" }, "geometry": { "type": "Point", "coordinates": [ -79.208897, 43.821316 ] } },
{ "type": "Feature", "properties": { "name": "Royal Orchard Park" }, "geometry": { "type": "Point", "coordinates": [ -79.417261, 43.826846 ] } },
{ "type": "Feature", "properties": { "name": "Oakhurst Park" }, "geometry": { "type": "Point", "coordinates": [ -79.462356, 43.811474 ] } },
{ "type": "Feature", "properties": { "name": "Beverley Glen Park" }, "geometry": { "type": "Point", "coordinates": [ -79.467755, 43.812446 ] } },
{ "type": "Feature", "properties": { "name": "King High Park" }, "geometry": { "type": "Point", "coordinates": [ -79.471984, 43.808004 ] } },
{ "type": "Feature", "properties": { "name": "Anthony Locilento Park" }, "geometry": { "type": "Point", "coordinates": [ -79.563027, 43.818217 ] } },
{ "type": "Feature", "properties": { "name": "Sunset Ridge Park" }, "geometry": { "type": "Point", "coordinates": [ -79.622725, 43.821719 ] } },
{ "type": "Feature", "properties": { "name": "Rainbow Creek Park" }, "geometry": { "type": "Point", "coordinates": [ -79.604348, 43.780006 ] } },
{ "type": "Feature", "properties": { "name": "Maxey Park" }, "geometry": { "type": "Point", "coordinates": [ -79.584785, 43.788986 ] } },
{ "type": "Feature", "properties": { "name": "Nort Johnston District Park" }, "geometry": { "type": "Point", "coordinates": [ -79.590754, 43.783177 ] } },
{ "type": "Feature", "properties": { "name": "Driftwood Park" }, "geometry": { "type": "Point", "coordinates": [ -79.512247, 43.76263 ] } },
{ "type": "Feature", "properties": { "name": "Bradstock Park" }, "geometry": { "type": "Point", "coordinates": [ -79.449352, 43.881154 ] } },
{ "type": "Feature", "properties": { "name": "Larratt Lea Park" }, "geometry": { "type": "Point", "coordinates": [ -79.458452, 43.894061 ] } },
{ "type": "Feature", "properties": { "name": "Tollbar Park" }, "geometry": { "type": "Point", "coordinates": [ -79.446046, 43.891453 ] } },
{ "type": "Feature", "properties": { "name": "Monarch Park" }, "geometry": { "type": "Point", "coordinates": [ -79.30325, 43.876974 ] } },
{ "type": "Feature", "properties": { "name": "Bruce’s Creek" }, "geometry": { "type": "Point", "coordinates": [ -79.309027, 43.867418 ] } },
{ "type": "Feature", "properties": { "name": "Westacres Park" }, "geometry": { "type": "Point", "coordinates": [ -79.583569, 43.59105 ] } },
{ "type": "Feature", "properties": { "name": "Fred Halliday Memorial Park" }, "geometry": { "type": "Point", "coordinates": [ -79.576463, 43.597642 ] } },
{ "type": "Feature", "properties": { "name": "Laughton Heights Park" }, "geometry": { "type": "Point", "coordinates": [ -79.568936, 43.603772 ] } },
{ "type": "Feature", "properties": { "name": "Neilson Park" }, "geometry": { "type": "Point", "coordinates": [ -79.567402, 43.63059 ] } },
{ "type": "Feature", "properties": { "name": "Duplex Parkette" }, "geometry": { "type": "Point", "coordinates": [ -79.403081, 43.721267 ] } },
{ "type": "Feature", "properties": { "name": "Chatsworth Ravine" }, "geometry": { "type": "Point", "coordinates": [ -79.406492, 43.72069 ] } },
{ "type": "Feature", "properties": { "name": "Lytton Park" }, "geometry": { "type": "Point", "coordinates": [ -79.408792, 43.714012 ] } },
{ "type": "Feature", "properties": { "name": "Sherwood Park" }, "geometry": { "type": "Point", "coordinates": [ -79.386725, 43.716773 ] } },
{ "type": "Feature", "properties": { "name": "Blythwood Ravine Park" }, "geometry": { "type": "Point", "coordinates": [ -79.392145, 43.71905 ] } },
{ "type": "Feature", "properties": { "name": "Alexander Muir Memorial Gardens" }, "geometry": { "type": "Point", "coordinates": [ -79.397948, 43.719981 ] } },
{ "type": "Feature", "properties": { "name": "George Milbrandt Parkette" }, "geometry": { "type": "Point", "coordinates": [ -79.401904, 43.725389 ] } },
{ "type": "Feature", "properties": { "name": "Woburn Park" }, "geometry": { "type": "Point", "coordinates": [ -79.405806, 43.727483 ] } },
{ "type": "Feature", "properties": { "name": "Old Orchard Park" }, "geometry": { "type": "Point", "coordinates": [ -79.421881, 43.73072 ] } },
{ "type": "Feature", "properties": { "name": "Peel Village Park" }, "geometry": { "type": "Point", "coordinates": [ -79.733898, 43.676207 ] } },
{ "type": "Feature", "properties": { "name": "Lord Elgin Park" }, "geometry": { "type": "Point", "coordinates": [ -79.028429, 43.856505 ] } },
{ "type": "Feature", "properties": { "name": "Max Ward Park" }, "geometry": { "type": "Point", "coordinates": [ -79.60747, 43.657477 ] } },
{ "type": "Feature", "properties": { "name": "Elmcrest Park" }, "geometry": { "type": "Point", "coordinates": [ -79.582724, 43.645983 ] } },
{ "type": "Feature", "properties": { "name": "St. Clair Gardens Parkette" }, "geometry": { "type": "Point", "coordinates": [ -79.456764, 43.675204 ] } },
{ "type": "Feature", "properties": { "name": "S.A.D.R.A. Park" }, "geometry": { "type": "Point", "coordinates": [ -79.46217, 43.675632 ] } },
{ "type": "Feature", "properties": { "name": "S.A.D.R.A. Park" }, "geometry": { "type": "Point", "coordinates": [ -79.459686, 43.675479 ] } },
{ "type": "Feature", "properties": { "name": "S.A.D.R.A. Park" }, "geometry": { "type": "Point", "coordinates": [ -79.464471, 43.675817 ] } },
{ "type": "Feature", "properties": { "name": "Jonathan Ashbridge Park" }, "geometry": { "type": "Point", "coordinates": [ -79.319902, 43.664714 ] } },
{ "type": "Feature", "properties": { "name": "Princeton Gate Park" }, "geometry": { "type": "Point", "coordinates": [ -79.524323, 43.868483 ] } },
{ "type": "Feature", "properties": { "name": "Mackenzie Glen Park" }, "geometry": { "type": "Point", "coordinates": [ -79.529965, 43.861765 ] } },
{ "type": "Feature", "properties": { "name": "Frank Robson Park" }, "geometry": { "type": "Point", "coordinates": [ -79.513242, 43.842704 ] } },
{ "type": "Feature", "properties": { "name": "Routley Park" }, "geometry": { "type": "Point", "coordinates": [ -79.504922, 43.84039 ] } },
{ "type": "Feature", "properties": { "name": "West Maple Creek Park" }, "geometry": { "type": "Point", "coordinates": [ -79.528818, 43.843408 ] } },
{ "type": "Feature", "properties": { "name": "Alexander Park" }, "geometry": { "type": "Point", "coordinates": [ -79.486537, 43.837676 ] } },
{ "type": "Feature", "properties": { "name": "Worth Park" }, "geometry": { "type": "Point", "coordinates": [ -79.462529, 43.820141 ] } },
{ "type": "Feature", "properties": { "name": "Rosedale North Park" }, "geometry": { "type": "Point", "coordinates": [ -79.445036, 43.815703 ] } },
{ "type": "Feature", "properties": { "name": "John Honsberger Field Park" }, "geometry": { "type": "Point", "coordinates": [ -79.417583, 43.813264 ] } },
{ "type": "Feature", "properties": { "name": "Kortright Centre for Conservation" }, "geometry": { "type": "Point", "coordinates": [ -79.595936, 43.828183 ] } },
{ "type": "Feature", "properties": { "name": "Severn Creek Park" }, "geometry": { "type": "Point", "coordinates": [ -79.387119, 43.676066 ] } },
{ "type": "Feature", "properties": { "name": "David A. Balfour Park" }, "geometry": { "type": "Point", "coordinates": [ -79.386907, 43.686192 ] } },
{ "type": "Feature", "properties": { "name": "Roxborough Parkette" }, "geometry": { "type": "Point", "coordinates": [ -79.381948, 43.68127 ] } },
{ "type": "Feature", "properties": { "name": "Mildred Temple Park" }, "geometry": { "type": "Point", "coordinates": [ -79.307077, 43.85913 ] } },
{ "type": "Feature", "properties": { "name": "Stargell Park" }, "geometry": { "type": "Point", "coordinates": [ -79.282465, 43.876112 ] } },
{ "type": "Feature", "properties": { "name": "Giovanni Caboto Park" }, "geometry": { "type": "Point", "coordinates": [ -79.558826, 43.794063 ] } },
{ "type": "Feature", "properties": { "name": "Blue Willow Square" }, "geometry": { "type": "Point", "coordinates": [ -79.552078, 43.794289 ] } },
{ "type": "Feature", "properties": { "name": "Joey Panetta Park" }, "geometry": { "type": "Point", "coordinates": [ -79.557036, 43.802754 ] } },
{ "type": "Feature", "properties": { "name": "Marco Park" }, "geometry": { "type": "Point", "coordinates": [ -79.573347, 43.801457 ] } },
{ "type": "Feature", "properties": { "name": "George Stegman Park" }, "geometry": { "type": "Point", "coordinates": [ -79.57216, 43.793515 ] } },
{ "type": "Feature", "properties": { "name": "Robert Watson Park" }, "geometry": { "type": "Point", "coordinates": [ -79.567491, 43.792244 ] } },
{ "type": "Feature", "properties": { "name": "Torii Park" }, "geometry": { "type": "Point", "coordinates": [ -79.570006, 43.786788 ] } },
{ "type": "Feature", "properties": { "name": "Inukshuk Park" }, "geometry": { "type": "Point", "coordinates": [ -79.409447, 43.632511 ] } },
{ "type": "Feature", "properties": { "name": "Maple Claire Park" }, "geometry": { "type": "Point", "coordinates": [ -79.472732, 43.67265 ] } },
{ "type": "Feature", "properties": { "name": "Elgin Mills Greenway" }, "geometry": { "type": "Point", "coordinates": [ -79.460645, 43.887475 ] } },
{ "type": "Feature", "properties": { "name": "Debonair Parkette" }, "geometry": { "type": "Point", "coordinates": [ -79.447709, 43.893668 ] } },
{ "type": "Feature", "properties": { "name": "New Berry Park" }, "geometry": { "type": "Point", "coordinates": [ -79.43409, 43.902001 ] } },
{ "type": "Feature", "properties": { "name": "Crosby Park" }, "geometry": { "type": "Point", "coordinates": [ -79.428235, 43.883784 ] } },
{ "type": "Feature", "properties": { "name": "The Richmond Hill Rotary Club Park" }, "geometry": { "type": "Point", "coordinates": [ -79.399799, 43.879273 ] } },
{ "type": "Feature", "properties": { "name": "Headwaters Community Park" }, "geometry": { "type": "Point", "coordinates": [ -79.404789, 43.890628 ] } },
{ "type": "Feature", "properties": { "name": "John Tipp Park" }, "geometry": { "type": "Point", "coordinates": [ -79.39804, 43.891058 ] } },
{ "type": "Feature", "properties": { "name": "Redstone Park" }, "geometry": { "type": "Point", "coordinates": [ -79.41396, 43.885359 ] } },
{ "type": "Feature", "properties": { "name": "Artisian Park" }, "geometry": { "type": "Point", "coordinates": [ -79.397079, 43.869673 ] } },
{ "type": "Feature", "properties": { "name": "Sentinel Park" }, "geometry": { "type": "Point", "coordinates": [ -79.498108, 43.75455 ] } },
{ "type": "Feature", "properties": { "name": "Napa Valley Park" }, "geometry": { "type": "Point", "coordinates": [ -79.618132, 43.81388 ] } },
{ "type": "Feature", "properties": { "name": "Berczy Park North" }, "geometry": { "type": "Point", "coordinates": [ -79.305627, 43.894405 ] } },
{ "type": "Feature", "properties": { "name": "Frederick Bagg Park" }, "geometry": { "type": "Point", "coordinates": [ -79.306547, 43.897646 ] } },
{ "type": "Feature", "properties": { "name": "Chelsea Park" }, "geometry": { "type": "Point", "coordinates": [ -79.30144, 43.89949 ] } },
{ "type": "Feature", "properties": { "name": "Williamstown Park" }, "geometry": { "type": "Point", "coordinates": [ -79.294745, 43.893882 ] } },
{ "type": "Feature", "properties": { "name": "Angus Glen Village Green" }, "geometry": { "type": "Point", "coordinates": [ -79.321042, 43.892652 ] } },
{ "type": "Feature", "properties": { "name": "Fincham Park" }, "geometry": { "type": "Point", "coordinates": [ -79.256328, 43.889063 ] } },
{ "type": "Feature", "properties": { "name": "Mintleaf Park" }, "geometry": { "type": "Point", "coordinates": [ -79.24516, 43.89211 ] } },
{ "type": "Feature", "properties": { "name": "Reesor Park" }, "geometry": { "type": "Point", "coordinates": [ -79.243283, 43.887551 ] } },
{ "type": "Feature", "properties": { "name": "Seven Oaks Park" }, "geometry": { "type": "Point", "coordinates": [ -79.210878, 43.788096 ] } },
{ "type": "Feature", "properties": { "name": "Vine Avenue Playground" }, "geometry": { "type": "Point", "coordinates": [ -79.470538, 43.666973 ] } },
{ "type": "Feature", "properties": { "name": "Malta Park" }, "geometry": { "type": "Point", "coordinates": [ -79.475568, 43.665301 ] } },
{ "type": "Feature", "properties": { "name": "Noble Park" }, "geometry": { "type": "Point", "coordinates": [ -79.501236, 43.67722 ] } },
{ "type": "Feature", "properties": { "name": "Harwood Park" }, "geometry": { "type": "Point", "coordinates": [ -79.477164, 43.676597 ] } },
{ "type": "Feature", "properties": { "name": "Charles Caccia Park" }, "geometry": { "type": "Point", "coordinates": [ -79.454042, 43.68834 ] } },
{ "type": "Feature", "properties": { "name": "Heritage Hills Park" }, "geometry": { "type": "Point", "coordinates": [ -79.657403, 43.598211 ] } },
{ "type": "Feature", "properties": { "name": "Mount Pleasant Parkette" }, "geometry": { "type": "Point", "coordinates": [ -79.386604, 43.699769 ] } },
{ "type": "Feature", "properties": { "name": "Ohr Menachem Park" }, "geometry": { "type": "Point", "coordinates": [ -79.458726, 43.83637 ] } },
{ "type": "Feature", "properties": { "name": "Harbour Square Park" }, "geometry": { "type": "Point", "coordinates": [ -79.37634, 43.639927 ] } },
{ "type": "Feature", "properties": { "name": "Ridgewood Park" }, "geometry": { "type": "Point", "coordinates": [ -79.640983, 43.716246 ] } },
{ "type": "Feature", "properties": { "name": "Woodgreen Park" }, "geometry": { "type": "Point", "coordinates": [ -79.646683, 43.719744 ] } },
{ "type": "Feature", "properties": { "name": "Marvin Heights Park" }, "geometry": { "type": "Point", "coordinates": [ -79.650997, 43.716133 ] } },
{ "type": "Feature", "properties": { "name": "Downsview Memorial Parkette" }, "geometry": { "type": "Point", "coordinates": [ -79.481199, 43.727287 ] } },
{ "type": "Feature", "properties": { "name": "Jack Darling Memorial Park" }, "geometry": { "type": "Point", "coordinates": [ -79.605435, 43.527029 ] } },
{ "type": "Feature", "properties": { "name": "J.C. Saddington Park" }, "geometry": { "type": "Point", "coordinates": [ -79.58359, 43.546352 ] } },
{ "type": "Feature", "properties": { "name": "Lissom Park" }, "geometry": { "type": "Point", "coordinates": [ -79.441889, 43.785462 ] } },
{ "type": "Feature", "properties": { "name": "Warner Park" }, "geometry": { "type": "Point", "coordinates": [ -79.306192, 43.724528 ] } },
{ "type": "Feature", "properties": { "name": "Ed & Anne Mirvish Parkette" }, "geometry": { "type": "Point", "coordinates": [ -79.4115, 43.666576 ] } },
{ "type": "Feature", "properties": { "name": "Gord and Irene Risk Park" }, "geometry": { "type": "Point", "coordinates": [ -79.567869, 43.747038 ] } },
{ "type": "Feature", "properties": { "name": "Lindy Lou Park" }, "geometry": { "type": "Point", "coordinates": [ -79.544763, 43.749542 ] } },
{ "type": "Feature", "properties": { "name": "South Marine Park" }, "geometry": { "type": "Point", "coordinates": [ -79.205125, 43.735149 ] } },
{ "type": "Feature", "properties": { "name": "Chapman Park" }, "geometry": { "type": "Point", "coordinates": [ -79.441314, 43.833279 ] } },
{ "type": "Feature", "properties": { "name": "Prince of Wales Park" }, "geometry": { "type": "Point", "coordinates": [ -79.498771, 43.598987 ] } },
{ "type": "Feature", "properties": { "name": "Mimico Memorial Park" }, "geometry": { "type": "Point", "coordinates": [ -79.493677, 43.609834 ] } },
{ "type": "Feature", "properties": { "name": "Millwood Park" }, "geometry": { "type": "Point", "coordinates": [ -79.578391, 43.631428 ] } },
{ "type": "Feature", "properties": { "name": "Norris Crescent Parkette" }, "geometry": { "type": "Point", "coordinates": [ -79.487077, 43.611207 ] } },
{ "type": "Feature", "properties": { "name": "Progress Frenchman's Bay East Park" }, "geometry": { "type": "Point", "coordinates": [ -79.085413, 43.816729 ] } },
{ "type": "Feature", "properties": { "name": "Kinsmen Park" }, "geometry": { "type": "Point", "coordinates": [ -79.069599, 43.817703 ] } },
{ "type": "Feature", "properties": { "name": "Bob O'Link Parkette" }, "geometry": { "type": "Point", "coordinates": [ -79.484857, 43.788321 ] } },
{ "type": "Feature", "properties": { "name": "Orchard Hill Park" }, "geometry": { "type": "Point", "coordinates": [ -79.549774, 43.587332 ] } },
{ "type": "Feature", "properties": { "name": "Heatherleigh Park" }, "geometry": { "type": "Point", "coordinates": [ -79.68102, 43.594269 ] } },
{ "type": "Feature", "properties": { "name": "Brown's Heights Park" }, "geometry": { "type": "Point", "coordinates": [ -79.699622, 43.584571 ] } },
{ "type": "Feature", "properties": { "name": "Hewick Meadows Park" }, "geometry": { "type": "Point", "coordinates": [ -79.687484, 43.567595 ] } },
{ "type": "Feature", "properties": { "name": "Shadybrook Park" }, "geometry": { "type": "Point", "coordinates": [ -79.116001, 43.828647 ] } },
{ "type": "Feature", "properties": { "name": "Viewmount Park" }, "geometry": { "type": "Point", "coordinates": [ -79.437477, 43.70702 ] } },
{ "type": "Feature", "properties": { "name": "Dunlace Park" }, "geometry": { "type": "Point", "coordinates": [ -79.368691, 43.762499 ] } },
{ "type": "Feature", "properties": { "name": "Woodsworth Parkette" }, "geometry": { "type": "Point", "coordinates": [ -79.365845, 43.765298 ] } },
{ "type": "Feature", "properties": { "name": "Dell Park" }, "geometry": { "type": "Point", "coordinates": [ -79.433868, 43.717125 ] } },
{ "type": "Feature", "properties": { "name": "Woburn Park" }, "geometry": { "type": "Point", "coordinates": [ -79.427384, 43.722717 ] } },
{ "type": "Feature", "properties": { "name": "Cooksville Park" }, "geometry": { "type": "Point", "coordinates": [ -79.60959, 43.580021 ] } },
{ "type": "Feature", "properties": { "name": "Yorkdale Park" }, "geometry": { "type": "Point", "coordinates": [ -79.448288, 43.724099 ] } },
{ "type": "Feature", "properties": { "name": "Sandown Park" }, "geometry": { "type": "Point", "coordinates": [ -79.253353, 43.710026 ] } },
{ "type": "Feature", "properties": { "name": "Guild Park" }, "geometry": { "type": "Point", "coordinates": [ -79.205252, 43.739252 ] } },
{ "type": "Feature", "properties": { "name": "Centennial Park" }, "geometry": { "type": "Point", "coordinates": [ -79.148711, 43.785807 ] } },
{ "type": "Feature", "properties": { "name": "Highland Creek Community Park" }, "geometry": { "type": "Point", "coordinates": [ -79.179659, 43.7899 ] } },
{ "type": "Feature", "properties": { "name": "Shawn Blu Rose Park" }, "geometry": { "type": "Point", "coordinates": [ -79.209315, 43.811852 ] } },
{ "type": "Feature", "properties": { "name": "Hupfield Park" }, "geometry": { "type": "Point", "coordinates": [ -79.218297, 43.813123 ] } },
{ "type": "Feature", "properties": { "name": "Ranchdale Park" }, "geometry": { "type": "Point", "coordinates": [ -79.323924, 43.751807 ] } },
{ "type": "Feature", "properties": { "name": "Jack Goodlad Park" }, "geometry": { "type": "Point", "coordinates": [ -79.269836, 43.742498 ] } },
{ "type": "Feature", "properties": { "name": "Natal Park" }, "geometry": { "type": "Point", "coordinates": [ -79.255893, 43.713323 ] } },
{ "type": "Feature", "properties": { "name": "Eglinton Ravine Park" }, "geometry": { "type": "Point", "coordinates": [ -79.271791, 43.729583 ] } },
{ "type": "Feature", "properties": { "name": "Farlinger Ravine" }, "geometry": { "type": "Point", "coordinates": [ -79.267888, 43.726312 ] } },
{ "type": "Feature", "properties": { "name": "McKenzie Park" }, "geometry": { "type": "Point", "coordinates": [ -79.612649, 43.594236 ] } },
{ "type": "Feature", "properties": { "name": "Brentwood Park" }, "geometry": { "type": "Point", "coordinates": [ -79.619239, 43.59581 ] } },
{ "type": "Feature", "properties": { "name": "Stonebrook Park" }, "geometry": { "type": "Point", "coordinates": [ -79.6225, 43.590438 ] } },
{ "type": "Feature", "properties": { "name": "Love Park" }, "geometry": { "type": "Point", "coordinates": [ -79.379863, 43.640712 ] } },
{ "type": "Feature", "properties": { "name": "Dalrymple Park" }, "geometry": { "type": "Point", "coordinates": [ -79.492197, 43.678836 ] } },
{ "type": "Feature", "properties": { "name": "Runnymede Park" }, "geometry": { "type": "Point", "coordinates": [ -79.479032, 43.668276 ] } },
{ "type": "Feature", "properties": { "name": "Elmbrook Park" }, "geometry": { "type": "Point", "coordinates": [ -79.584451, 43.660505 ] } },
{ "type": "Feature", "properties": { "name": "Lynedock Park" }, "geometry": { "type": "Point", "coordinates": [ -79.330287, 43.76113 ] } },
{ "type": "Feature", "properties": { "name": "Rowena Park" }, "geometry": { "type": "Point", "coordinates": [ -79.315523, 43.750342 ] } },
{ "type": "Feature", "properties": { "name": "Laurentide Park" }, "geometry": { "type": "Point", "coordinates": [ -79.336577, 43.755182 ] } },
{ "type": "Feature", "properties": { "name": "Dr. Daniel Hill Park" }, "geometry": { "type": "Point", "coordinates": [ -79.328234, 43.749315 ] } },
{ "type": "Feature", "properties": { "name": "Deanvar Park" }, "geometry": { "type": "Point", "coordinates": [ -79.308271, 43.747304 ] } },
{ "type": "Feature", "properties": { "name": "Kennedy-Margdon Parkette" }, "geometry": { "type": "Point", "coordinates": [ -79.473332, 43.652357 ] } },
{ "type": "Feature", "properties": { "name": "Terraview Park" }, "geometry": { "type": "Point", "coordinates": [ -79.311614, 43.766746 ] } },
{ "type": "Feature", "properties": { "name": "Old Sheppard Park" },